Timestamp,Temperature,Altitude,Speed,Vertical Speed,Engine RPMs,Throttle,Oil Pressure,Oil Temperature,Fuel Capacity,Fuel Flow,Pitch,Pitch Rate,Roll,Roll Rate,Yaw,Yaw Rate,Alerts
2025-07-28T19:22:47Z,94.66,-9999.00,0.00,0.00,0.00,0.00,0.00,0.00,9.80,0.00,0.42,0.00,0.00,0.00,270.02,0.00
2025-07-28T19:22:47Z,94.66,-9999.00,0.00,0.00,0.00,0.00,0.00,0.00,9.80,0.00,0.42,0.00,0.00,0.00,270.02,0.00
2025-07-28T19:22:48Z,94.66,-9999.00,0.00,0.00,0.00,0.00,0.00,0.00,9.80,0.00,0.42,0.00,0.00,0.00,0.02,0.00
2025-07-28T19:22:48Z,94.66,-9999.00,0.00,0.00,0.00,0.00,0.00,0.00,9.80,0.00,0.42,0.00,0.00,0.00,0.02,0.00
2025-07-28T19:22:48Z,94.66,-9999.00,0.00,0.00,0.00,0.00,0.00,0.00,9.80,0.00,0.42,0.00,0.00,0.00,0.02,0.00
2025-07-28T19:22:48Z,94.66,-9999.00,0.00,0.00,0.00,0.00,0.00,0.00,9.80,0.00,0.42,0.00,0.00,0.00,0.02,0.00
2025-07-28T19:22:48Z,94.66,-9999.00,0.00,0.00,0.00,0.00,0.00,0.00,9.80,0.00,0.42,0.00,0.00,0.00,0.02,0.00
2025-07-28T19:22:48Z,94.66,-9999.00,0.00,0.00,0.00,0.00,0.00,0.00,9.80,0.00,0.42,0.00,0.00,0.00,0.02,0.00
2025-07-28T19:22:48Z,94.66,-9999.00,0.00,0.00,0.00,0.00,0.00,0.00,9.80,0.00,0.42,0.00,0.00,0.00,0.02,0.00
2025-07-28T19:22:48Z,94.66,-9999.00,0.00,0.00,0.00,0.00,0.00,0.00,9.80,0.00,0.42,0.00,0.00,0.00,0.02,0.00
2025-07-28T19:22:48Z,94.66,-9999.00,0.00,0.00,0.00,0.00,0.00,0.00,9.80,0.00,0.42,0.00,0.00,0.00,0.02,0.00
2025-07-28T19:22:48Z,94.66,-9999.00,0.00,0.00,0.00,0.00,0.00,0.00,9.80,0.00,0.42,0.00,0.00,0.00,0.02,0.00
2025-07-28T19:22:48Z,94.66,-9999.00,0.00,0.00,0.00,0.00,0.00,0.00,9.80,0.00,0.42,0.00,0.00,0.00,0.02,0.00
2025-07-28T19:22:49Z,94.66,-9999.00,0.00,0.00,0.00,0.00,0.00,0.00,9.80,0.00,0.42,0.00,0.00,0.00,0.02,0.00
2025-07-28T19:22:49Z,94.66,-9999.00,0.00,0.00,0.00,0.00,0.00,0.00,9.80,0.00,0.42,0.00,0.00,0.00,0.02,0.00
2025-07-28T19:22:49Z,94.66,-9999.00,0.00,0.00,0.00,0.00,0.00,0.00,9.80,0.00,0.42,0.00,0.00,0.00,0.02,0.00
2025-07-28T19:22:49Z,94.66,-9999.00,0.00,0.00,0.00,0.00,0.00,0.00,9.80,0.00,0.42,0.00,0.00,0.00,0.02,0.00
2025-07-28T19:22:49Z,94.66,-9999.00,0.00,0.00,0.00,0.00,0.00,0.00,9.80,0.00,0.42,0.00,0.00,0.00,0.02,0.00
2025-07-28T19:22:49Z,94.66,-9999.00,0.00,0.00,0.00,0.00,0.00,0.00,9.80,0.00,0.42,0.00,0.00,0.00,0.02,0.00
2025-07-28T19:22:49Z,94.66,-9999.00,0.00,0.00,0.00,0.00,0.00,0.00,9.80,0.00,0.42,0.00,0.00,0.00,0.02,0.00
2025-07-28T19:22:49Z,94.66,-9999.00,0.00,0.00,0.00,0.00,0.00,0.00,9.80,0.00,0.42,0.00,0.00,0.00,0.02,0.00
2025-07-28T19:22:49Z,94.66,-9999.00,0.00,0.00,0.00,0.00,0.00,0.00,9.80,0.00,0.42,0.00,0.00,0.00,0.02,0.00
2025-07-28T19:22:49Z,94.66,-9999.00,0.00,0.00,0.00,0.00,0.00,0.00,9.80,0.00,0.42,0.00,0.00,0.00,0.02,0.00
2025-07-28T19:22:50Z,94.66,-9999.00,0.00,0.00,0.00,0.00,0.00,0.00,9.80,0.00,0.42,0.00,0.00,0.00,0.02,0.00
2025-07-28T19:22:50Z,94.66,-9999.00,0.00,0.00,0.00,0.00,0.00,0.00,9.80,0.00,0.42,0.00,0.00,0.00,0.02,0.00
2025-07-28T19:22:50Z,94.66,-9999.00,0.00,0.00,0.00,0.00,0.00,0.00,9.80,0.00,0.42,0.00,0.00,0.00,0.02,0.00
2025-07-28T19:22:50Z,94.66,-9999.00,0.00,0.00,0.00,0.00,0.00,0.00,9.80,0.00,0.42,0.00,0.00,0.00,0.02,0.00
2025-07-28T19:22:50Z,94.66,-9999.00,0.00,0.00,0.00,0.00,0.00,0.00,9.80,0.00,0.42,0.00,0.00,0.00,0.02,0.00
2025-07-28T19:22:50Z,94.66,-9999.00,0.00,0.00,0.00,0.00,0.00,0.00,9.80,0.00,0.42,0.00,0.00,0.00,0.02,0.00
2025-07-28T19:22:50Z,94.66,-9999.00,0.00,0.00,0.00,0.00,0.00,0.00,9.80,0.00,0.42,0.00,0.00,0.00,0.02,0.00
2025-07-28T19:22:50Z,94.66,-9999.00,0.00,0.00,0.00,0.00,0.00,0.00,9.80,0.00,0.42,0.00,0.00,0.00,0.02,0.00
2025-07-28T19:22:50Z,94.66,-9999.00,0.00,0.00,0.00,0.00,0.00,0.00,9.80,0.00,0.42,0.00,0.00,0.00,0.02,0.00
2025-07-28T19:22:51Z,94.66,-9999.00,0.00,0.00,0.00,0.00,0.00,0.00,9.80,0.00,0.42,0.00,0.00,0.00,0.02,0.00
2025-07-28T19:22:51Z,94.66,-9999.00,0.00,0.00,0.00,0.00,0.00,0.00,9.80,0.00,0.42,0.00,0.00,0.00,0.02,0.00
2025-07-28T19:22:51Z,94.66,-9999.00,0.00,0.00,0.00,0.00,0.00,0.00,9.80,0.00,0.42,0.00,0.00,0.00,0.02,0.00
2025-07-28T19:22:51Z,94.66,-9999.00,0.00,0.00,0.00,0.00,0.00,0.00,9.80,0.00,0.42,0.00,0.00,0.00,0.02,0.00
2025-07-28T19:22:51Z,94.66,-9999.00,0.00,0.00,0.00,0.00,0.00,0.00,9.80,0.00,0.42,0.00,0.00,0.00,0.02,0.00
2025-07-28T19:22:51Z,94.66,-9999.00,0.00,0.00,0.00,0.00,0.00,0.00,9.80,0.00,0.42,0.00,0.00,0.00,0.02,0.00
2025-07-28T19:22:51Z,94.66,-9999.00,0.00,0.00,0.00,0.00,0.00,0.00,9.80,0.00,0.42,0.00,0.00,0.00,0.02,0.00
2025-07-28T19:22:51Z,94.66,-9999.00,0.00,0.00,0.00,0.00,0.00,0.00,9.80,0.00,0.42,0.00,0.00,0.00,0.02,0.00
2025-07-28T19:22:51Z,94.66,-9999.00,0.00,0.00,0.00,0.00,0.00,0.00,9.80,0.00,0.42,0.00,0.00,0.00,0.02,0.00
2025-07-28T19:22:51Z,94.66,-9999.00,0.00,0.00,0.00,0.00,0.00,0.00,9.80,0.00,0.42,0.00,0.00,0.00,0.02,0.00
2025-07-28T19:22:52Z,94.66,-9999.00,0.00,0.00,0.00,0.00,0.00,0.00,9.80,0.00,0.42,0.00,0.00,0.00,0.02,0.00
2025-07-28T19:22:52Z,94.66,-9999.00,0.00,0.00,0.00,0.00,0.00,0.00,9.80,0.00,0.42,0.00,0.00,0.00,0.02,0.00
2025-07-28T19:22:52Z,94.66,-9999.00,0.00,0.00,0.00,0.00,0.00,0.00,9.80,0.00,0.42,0.00,0.00,0.00,0.02,0.00
2025-07-28T19:22:52Z,94.66,-9999.00,0.00,0.00,0.00,0.00,0.00,0.00,9.80,0.00,0.42,0.00,0.00,0.00,0.02,0.00
2025-07-28T19:22:52Z,94.66,-9999.00,0.00,0.00,0.00,0.00,0.00,0.00,9.80,0.00,0.42,0.00,0.00,0.00,0.02,0.00
2025-07-28T19:22:52Z,94.66,-9999.00,0.00,0.00,0.00,0.00,0.00,0.00,9.80,0.00,0.42,0.00,0.00,0.00,0.02,0.00
2025-07-28T19:22:52Z,94.66,-9999.00,0.00,0.00,0.00,0.00,0.00,0.00,9.80,0.00,0.42,0.00,0.00,0.00,0.02,0.00
2025-07-28T19:22:52Z,94.66,-9999.00,0.00,0.00,0.00,0.00,0.00,0.00,9.80,0.00,0.42,0.00,0.00,0.00,0.02,0.00
2025-07-28T19:22:52Z,94.66,-9999.00,0.00,0.00,0.00,0.00,0.00,0.00,9.80,0.00,0.42,0.00,0.00,0.00,0.02,0.00
2025-07-28T19:22:52Z,94.66,-9999.00,0.00,0.00,0.00,0.00,0.00,0.00,9.80,0.00,0.42,0.00,0.00,0.00,0.02,0.00
2025-07-28T19:22:52Z,94.66,-9999.00,0.00,0.00,0.00,0.00,0.00,0.00,9.80,0.00,0.42,0.00,0.00,0.00,0.02,0.00
2025-07-28T19:22:53Z,94.66,-9999.00,0.00,0.00,0.00,0.00,0.00,0.00,9.80,0.00,0.42,0.00,0.00,0.00,0.02,0.00
2025-07-28T19:22:53Z,94.66,-9999.00,0.00,0.00,0.00,0.00,0.00,0.00,9.80,0.00,0.42,0.00,0.00,0.00,0.02,0.00
2025-07-28T19:22:53Z,94.66,-9999.00,0.00,0.00,0.00,0.00,0.00,0.00,9.80,0.00,0.42,0.00,0.00,0.00,0.02,0.00
2025-07-28T19:22:53Z,94.66,-9999.00,0.00,0.00,0.00,0.00,0.00,0.00,9.80,0.00,0.42,0.00,0.00,0.00,0.02,0.00
2025-07-28T19:22:53Z,94.66,-9999.00,0.00,0.00,0.00,0.00,0.00,0.00,9.80,0.00,0.42,0.00,0.00,0.00,0.02,0.00
2025-07-28T19:22:53Z,94.66,-9999.00,0.00,0.00,0.00,0.00,0.00,0.00,9.80,0.00,0.42,0.00,0.00,0.00,0.02,0.00
2025-07-28T19:22:53Z,94.66,-9999.00,0.00,0.00,0.00,0.00,0.00,0.00,9.80,0.00,0.42,0.00,0.00,0.00,0.02,0.00
2025-07-28T19:22:53Z,94.66,-9999.00,0.00,0.00,0.00,0.00,0.00,0.00,9.80,0.00,0.42,0.00,0.00,0.00,0.02,0.00
2025-07-28T19:22:53Z,94.66,-9999.00,0.00,0.00,0.00,0.00,0.00,0.00,9.80,0.00,0.42,0.00,0.00,0.00,0.02,0.00
2025-07-28T19:22:53Z,94.66,-9999.00,0.00,0.00,0.00,0.00,0.00,0.00,9.80,0.00,0.42,0.00,0.00,0.00,0.02,0.00
2025-07-28T19:22:54Z,94.66,-9999.00,0.00,0.00,0.00,0.00,0.00,0.00,9.80,0.00,0.42,0.00,0.00,0.00,0.02,0.00
2025-07-28T19:22:54Z,94.66,-9999.00,0.00,0.00,0.00,0.00,0.00,0.00,9.80,0.00,0.42,0.00,0.00,0.00,0.02,0.00
2025-07-28T19:22:54Z,94.66,-9999.00,0.00,0.00,0.00,0.00,0.00,0.00,9.80,0.00,0.42,0.00,0.00,0.00,0.02,0.00
2025-07-28T19:22:54Z,94.66,-9999.00,0.00,0.00,0.00,0.00,0.00,0.00,9.80,0.00,0.42,0.00,0.00,0.00,0.02,0.00
2025-07-28T19:22:54Z,94.66,-9999.00,0.00,0.00,0.00,0.00,0.00,0.00,9.80,0.00,0.42,0.00,0.00,0.00,0.02,0.00
2025-07-28T19:22:54Z,94.66,-9999.00,0.00,0.00,0.00,0.00,0.00,0.00,9.80,0.00,0.42,0.00,0.00,0.00,0.02,0.00
2025-07-28T19:22:54Z,94.66,-9999.00,0.00,0.00,0.00,0.00,0.00,0.00,9.80,0.00,0.42,0.00,0.00,0.00,0.02,0.00
2025-07-28T19:22:54Z,94.66,-9999.00,0.00,0.00,0.00,0.00,0.00,0.00,9.80,0.00,0.42,0.00,0.00,0.00,0.02,0.00
2025-07-28T19:22:54Z,94.66,-9999.00,0.00,0.00,0.00,0.00,0.00,0.00,9.80,0.00,0.42,0.00,0.00,0.00,0.02,0.00
2025-07-28T19:22:54Z,94.66,-9999.00,0.00,0.00,0.00,0.00,0.00,0.00,9.80,0.00,0.42,0.00,0.00,0.00,0.02,0.00
2025-07-28T19:23:10Z,58.59,115.42,0.00,0.00,0.00,0.00,0.00,59.27,10.75,0.00,5.46,0.00,-0.22,0.00,0.01,0.00
2025-07-28T19:23:11Z,58.59,115.42,3.01,-0.00,0.00,0.00,0.00,59.27,10.75,0.00,5.49,0.00,-0.22,0.00,0.01,0.00
2025-07-28T19:23:11Z,58.59,115.42,2.87,-0.00,0.00,0.00,0.00,59.27,10.75,0.00,5.49,0.00,-0.22,-0.00,0.01,-0.00
2025-07-28T19:23:11Z,58.59,115.42,2.79,-0.00,0.00,0.00,0.00,59.27,10.75,0.00,5.49,-0.00,-0.22,-0.00,0.01,-0.00
2025-07-28T19:23:11Z,58.59,115.42,2.75,-0.00,0.00,0.00,0.00,59.27,10.75,0.00,5.49,-0.00,-0.22,-0.00,0.01,-0.00
2025-07-28T19:23:11Z,58.59,115.42,2.72,-0.00,0.00,0.00,0.00,59.27,10.75,0.00,5.49,-0.00,-0.22,-0.00,0.01,-0.00
2025-07-28T19:23:13Z,58.59,115.42,2.71,-0.00,0.00,0.00,0.00,59.27,10.75,0.00,5.49,-0.00,-0.22,-0.00,0.01,-0.00
2025-07-28T19:23:13Z,58.59,115.42,2.42,-0.00,0.00,0.00,0.00,59.27,10.75,0.00,5.48,-0.00,-0.22,-0.00,0.01,-0.00
2025-07-28T19:23:13Z,58.59,115.42,2.35,-0.00,0.00,0.00,0.00,59.27,10.75,0.00,5.48,-0.00,-0.22,-0.00,0.01,-0.00
2025-07-28T19:23:13Z,58.59,115.42,2.31,-0.00,0.00,0.00,0.00,59.27,10.75,0.00,5.48,-0.00,-0.22,-0.00,0.01,-0.00
2025-07-28T19:23:13Z,58.59,115.42,2.28,-0.00,0.00,0.00,0.00,59.27,10.75,0.00,5.48,-0.00,-0.22,-0.00,0.01,-0.00
2025-07-28T19:23:13Z,58.59,115.42,2.25,-0.00,0.00,0.00,0.00,59.27,10.75,0.00,5.48,-0.00,-0.23,-0.00,0.01,-0.00
2025-07-28T19:23:13Z,58.59,115.42,2.23,-0.00,0.00,0.00,0.00,59.27,10.75,0.00,5.48,-0.00,-0.23,-0.00,0.01,-0.00
2025-07-28T19:23:14Z,58.59,115.42,2.20,-0.00,0.00,0.00,0.00,59.27,10.75,0.00,5.48,-0.00,-0.23,-0.00,0.01,-0.00
2025-07-28T19:23:14Z,58.59,115.42,2.14,-0.00,0.00,0.00,0.00,59.27,10.75,0.00,5.48,-0.00,-0.23,-0.00,0.01,-0.00
2025-07-28T19:23:14Z,58.59,115.42,2.11,-0.00,0.00,0.00,0.00,59.27,10.75,0.00,5.48,-0.00,-0.23,-0.00,0.01,-0.00
2025-07-28T19:23:14Z,58.59,115.42,2.08,-0.00,0.00,0.00,0.00,59.27,10.75,0.00,5.48,-0.00,-0.23,-0.00,0.01,-0.00
2025-07-28T19:23:14Z,58.59,115.42,2.04,-0.00,0.00,0.00,0.00,59.27,10.75,0.00,5.48,-0.00,-0.23,-0.00,0.01,-0.00
2025-07-28T19:23:14Z,58.59,115.42,2.01,-0.00,0.00,0.00,0.00,59.27,10.75,0.00,5.48,-0.00,-0.23,-0.00,0.01,-0.00
2025-07-28T19:23:14Z,58.59,115.42,1.98,-0.00,0.00,0.00,0.00,59.27,10.75,0.00,5.48,-0.00,-0.23,-0.00,0.01,-0.00
2025-07-28T19:23:14Z,58.59,115.42,1.97,-0.00,0.00,0.00,0.00,59.27,10.75,0.00,5.48,-0.00,-0.23,-0.00,0.01,-0.00
2025-07-28T19:23:14Z,58.59,115.42,1.93,-0.00,0.00,0.00,0.00,59.27,10.75,0.00,5.47,-0.00,-0.23,-0.00,0.01,-0.00
2025-07-28T19:23:15Z,58.59,115.42,1.89,-0.00,0.00,0.00,0.00,59.27,10.75,0.00,5.47,-0.00,-0.23,-0.00,0.01,-0.00
2025-07-28T19:23:15Z,58.59,115.42,1.87,-0.00,0.00,0.00,0.00,59.27,10.75,0.00,5.47,-0.00,-0.23,-0.00,0.01,-0.00
2025-07-28T19:23:16Z,58.59,115.42,1.85,-0.00,0.00,0.00,0.00,59.27,10.75,0.00,5.47,-0.00,-0.23,-0.00,0.01,-0.00
2025-07-28T19:23:16Z,58.59,115.42,1.56,-0.00,0.00,0.00,0.00,59.27,10.75,0.00,5.47,-0.00,-0.23,-0.00,0.01,-0.00
2025-07-28T19:23:16Z,58.59,115.42,1.46,0.00,0.00,0.00,0.00,59.27,10.75,0.00,5.47,-0.00,-0.23,-0.00,0.01,-0.00
2025-07-28T19:23:17Z,58.59,115.42,1.43,-0.00,0.00,0.00,0.00,59.27,10.75,0.00,5.47,-0.00,-0.23,-0.00,0.01,-0.00
2025-07-28T19:23:17Z,58.59,115.42,1.39,-0.00,0.00,0.00,0.00,59.27,10.75,0.00,5.47,-0.00,-0.23,-0.00,0.01,-0.00
2025-07-28T19:23:17Z,58.59,115.42,1.37,-0.00,0.00,0.00,0.00,59.27,10.75,0.00,5.47,-0.00,-0.23,-0.00,0.01,-0.00
2025-07-28T19:23:17Z,58.59,115.42,1.35,-0.00,0.00,0.00,0.00,59.27,10.75,0.00,5.47,-0.00,-0.23,-0.00,0.01,-0.00
2025-07-28T19:23:17Z,58.59,115.42,1.31,-0.00,0.00,0.00,0.00,59.27,10.75,0.00,5.47,-0.00,-0.23,-0.00,0.01,-0.00
2025-07-28T19:23:17Z,58.59,115.42,1.28,-0.00,0.00,0.00,0.00,59.27,10.75,0.00,5.47,-0.00,-0.23,-0.00,0.01,-0.00
2025-07-28T19:23:17Z,58.59,115.42,1.26,-0.00,0.00,0.00,0.00,59.27,10.75,0.00,5.47,-0.00,-0.23,-0.00,0.01,-0.00
2025-07-28T19:23:17Z,58.59,115.42,1.24,-0.00,0.00,0.00,0.00,59.27,10.75,0.00,5.47,-0.00,-0.23,-0.00,0.01,-0.00
2025-07-28T19:23:17Z,58.59,115.42,1.19,-0.00,0.00,0.00,0.00,59.27,10.75,0.00,5.47,-0.00,-0.23,-0.00,0.01,-0.00
2025-07-28T19:23:18Z,58.59,115.42,1.13,-0.00,0.00,0.00,0.00,59.27,10.75,0.00,5.47,-0.00,-0.23,-0.00,0.01,-0.00
2025-07-28T19:23:18Z,58.59,115.42,0.88,-0.00,0.00,0.00,0.00,59.27,10.75,0.00,5.46,-0.00,-0.23,-0.00,0.01,-0.00
2025-07-28T19:23:19Z,58.59,115.42,0.83,-0.00,0.00,0.00,0.00,59.27,10.75,0.00,5.46,-0.00,-0.23,-0.00,0.01,-0.00
2025-07-28T19:23:19Z,58.59,115.42,0.80,-0.00,0.00,0.00,0.00,59.27,10.75,0.00,5.46,-0.00,-0.23,-0.00,0.01,-0.00
2025-07-28T19:23:19Z,58.59,115.42,0.78,-0.00,0.00,0.00,0.00,59.27,10.75,0.00,5.46,-0.00,-0.23,-0.00,0.01,-0.00
2025-07-28T19:23:19Z,58.59,115.42,0.76,-0.00,0.00,0.00,0.00,59.27,10.75,0.00,5.46,-0.00,-0.23,-0.00,0.01,-0.00
2025-07-28T19:23:19Z,58.59,115.42,0.70,-0.00,0.00,0.00,0.00,59.27,10.75,0.00,5.46,-0.00,-0.23,-0.00,0.01,-0.00
2025-07-28T19:23:19Z,58.59,115.42,0.66,-0.00,0.00,0.00,0.00,59.27,10.75,0.00,5.46,-0.00,-0.23,-0.00,0.01,-0.00
2025-07-28T19:23:19Z,58.59,115.42,0.62,-0.00,0.00,0.00,0.00,59.27,10.75,0.00,5.46,-0.00,-0.23,-0.00,0.01,-0.00
2025-07-28T19:23:19Z,58.59,115.42,0.60,-0.00,0.00,0.00,0.00,59.27,10.75,0.00,5.46,-0.00,-0.23,-0.00,0.01,-0.00
2025-07-28T19:23:19Z,58.59,115.42,0.58,-0.00,0.00,0.00,0.00,59.27,10.75,0.00,5.46,-0.00,-0.23,-0.00,0.01,-0.00
2025-07-28T19:23:20Z,58.59,115.42,0.54,-0.00,0.00,0.00,0.00,59.27,10.75,0.00,5.46,-0.00,-0.23,-0.00,0.01,-0.00
2025-07-28T19:23:20Z,58.59,115.42,0.51,-0.00,0.00,0.00,0.00,59.27,10.75,0.00,5.46,-0.00,-0.23,-0.00,0.01,-0.00
2025-07-28T19:23:20Z,58.59,115.42,0.48,-0.00,0.00,0.00,0.00,59.27,10.75,0.00,5.46,-0.00,-0.23,-0.00,0.01,-0.00
2025-07-28T19:23:20Z,58.59,115.42,0.43,-0.00,0.00,0.00,0.00,59.27,10.75,0.00,5.46,-0.00,-0.23,-0.00,0.01,-0.00
2025-07-28T19:23:20Z,58.59,115.42,0.39,-0.00,0.00,0.00,0.00,59.27,10.75,0.00,5.46,-0.00,-0.23,-0.00,0.01,-0.00
2025-07-28T19:23:20Z,58.59,115.42,0.36,-0.00,0.00,0.00,0.00,59.27,10.75,0.00,5.46,-0.00,-0.23,-0.00,0.01,-0.00
2025-07-28T19:23:20Z,58.59,115.42,0.33,-0.00,0.00,0.00,0.00,59.27,10.75,0.00,5.46,-0.00,-0.23,-0.00,0.01,-0.00
2025-07-28T19:23:20Z,58.59,115.42,0.30,-0.00,0.00,0.00,0.00,59.27,10.75,0.00,5.46,-0.00,-0.23,-0.00,0.01,-0.00
2025-07-28T19:23:20Z,58.59,115.42,0.27,-0.00,0.00,0.00,0.00,59.27,10.75,0.00,5.46,-0.00,-0.23,-0.00,0.01,-0.00
2025-07-28T19:23:21Z,58.59,115.42,0.24,-0.00,0.00,0.00,0.00,59.27,10.75,0.00,5.46,-0.00,-0.23,-0.00,0.01,-0.00
2025-07-28T19:23:21Z,58.59,115.42,0.22,-0.00,0.00,0.00,0.00,59.27,10.75,0.00,5.46,-0.00,-0.23,-0.00,0.01,-0.00
2025-07-28T19:23:21Z,58.59,115.42,0.19,-0.00,0.00,0.00,0.00,59.27,10.75,0.00,5.46,-0.00,-0.23,-0.00,0.01,-0.00
2025-07-28T19:23:21Z,58.59,115.42,0.16,-0.00,0.00,0.00,0.00,59.27,10.75,0.00,5.46,-0.00,-0.23,-0.00,0.01,-0.00
2025-07-28T19:23:21Z,58.59,115.42,0.13,0.00,0.00,0.00,0.00,59.27,10.75,0.00,5.46,-0.00,-0.23,-0.00,0.01,-0.00
2025-07-28T19:23:21Z,58.59,115.42,0.10,0.00,0.00,0.00,0.00,59.27,10.75,0.00,5.46,-0.00,-0.23,-0.00,0.01,-0.00
2025-07-28T19:23:21Z,58.59,115.42,0.07,-0.00,0.00,0.00,0.00,59.27,10.75,0.00,5.46,-0.00,-0.23,-0.00,0.01,-0.00
2025-07-28T19:23:23Z,58.59,115.42,0.05,-0.00,0.00,0.00,0.00,59.27,10.75,0.00,5.46,-0.00,-0.23,-0.00,0.01,-0.00
2025-07-28T19:23:23Z,58.59,115.42,0.00,0.00,0.00,0.00,0.00,59.27,10.75,0.00,5.46,-0.00,-0.23,-0.00,0.01,-0.00
2025-07-28T19:23:23Z,58.59,115.42,0.00,0.00,0.00,0.00,0.00,59.27,10.75,0.00,5.46,-0.00,-0.23,-0.00,0.01,-0.00
2025-07-28T19:23:23Z,58.59,115.42,0.00,0.00,0.00,0.00,0.00,59.27,10.75,0.00,5.46,-0.00,-0.23,-0.00,0.01,-0.00
2025-07-28T19:23:24Z,58.59,115.42,0.00,0.00,0.00,0.00,0.00,59.27,10.75,0.00,5.46,-0.00,-0.23,-0.00,0.01,-0.00
2025-07-28T19:23:24Z,58.59,115.42,0.00,0.00,0.00,0.00,0.00,59.27,10.75,0.00,5.46,-0.00,-0.23,-0.00,0.01,-0.00
2025-07-28T19:23:24Z,58.59,115.42,0.00,0.00,0.00,0.00,0.00,59.27,10.75,0.00,5.46,-0.00,-0.23,-0.00,0.01,-0.00
2025-07-28T19:23:24Z,58.59,115.42,0.00,0.00,0.00,0.00,0.00,59.27,10.75,0.00,5.46,-0.00,-0.23,-0.00,0.01,-0.00
2025-07-28T19:23:24Z,58.59,115.42,0.00,0.00,0.00,0.00,0.00,59.27,10.75,0.00,5.46,-0.00,-0.23,-0.00,0.01,-0.00
2025-07-28T19:23:24Z,58.59,115.42,0.00,0.00,0.00,0.00,0.00,59.27,10.75,0.00,5.46,-0.00,-0.23,-0.00,0.01,-0.00
2025-07-28T19:23:24Z,58.59,115.42,0.00,0.00,0.00,0.00,0.00,59.27,10.75,0.00,5.46,0.00,-0.23,-0.00,0.01,-0.00
2025-07-28T19:23:24Z,58.59,115.42,0.00,0.00,0.00,0.00,0.00,59.27,10.75,0.00,5.46,0.00,-0.23,-0.00,0.01,-0.00
2025-07-28T19:23:24Z,58.59,115.42,0.00,0.00,0.00,0.00,0.00,59.27,10.75,0.00,5.46,0.00,-0.23,-0.00,0.01,-0.00
2025-07-28T19:23:24Z,58.59,115.42,0.00,0.00,0.00,0.00,0.00,59.27,10.75,0.00,5.46,0.00,-0.23,-0.00,0.01,-0.00
2025-07-28T19:23:25Z,58.59,115.42,0.00,0.00,0.00,0.00,0.00,59.27,10.75,0.00,5.46,0.00,-0.23,-0.00,0.01,-0.00
2025-07-28T19:23:25Z,58.59,115.42,0.00,0.00,0.00,0.00,0.00,59.27,10.75,0.00,5.46,0.00,-0.23,-0.00,0.01,-0.00
2025-07-28T19:23:25Z,58.59,115.42,0.00,0.00,0.00,0.00,0.00,59.27,10.75,0.00,5.46,-0.00,-0.23,-0.00,0.01,-0.00
2025-07-28T19:23:25Z,58.59,115.42,0.00,0.00,0.00,0.00,0.00,59.27,10.75,0.00,5.46,0.00,-0.23,-0.00,0.01,-0.00
2025-07-28T19:23:25Z,58.59,115.42,0.00,0.00,0.00,0.00,0.00,59.27,10.75,0.00,5.46,0.00,-0.23,-0.00,0.01,-0.00
2025-07-28T19:23:25Z,58.59,115.42,0.00,0.00,0.00,0.00,0.00,59.27,10.75,0.00,5.46,-0.00,-0.23,-0.00,0.01,-0.00
2025-07-28T19:23:25Z,58.59,115.42,0.00,0.00,0.00,0.00,0.00,59.27,10.75,0.00,5.46,0.00,-0.23,-0.00,0.01,-0.00
2025-07-28T19:23:25Z,58.59,115.42,0.00,0.00,0.00,0.00,0.00,59.27,10.75,0.00,5.46,-0.00,-0.23,-0.00,0.01,-0.00
2025-07-28T19:23:25Z,58.59,115.42,0.00,0.00,0.00,0.00,0.00,59.27,10.75,0.00,5.46,0.00,-0.23,-0.00,0.01,-0.00
2025-07-28T19:23:25Z,58.59,115.42,0.00,0.00,0.00,0.00,0.00,59.27,10.75,0.00,5.46,0.00,-0.23,-0.00,0.01,-0.00
2025-07-28T19:23:26Z,58.59,115.42,0.00,0.00,0.00,0.00,0.00,59.27,10.75,0.00,5.46,-0.00,-0.23,-0.00,0.01,-0.00
2025-07-28T19:23:26Z,58.59,115.42,0.00,0.00,0.00,0.00,0.00,59.27,10.75,0.00,5.46,0.00,-0.23,-0.00,0.01,-0.00
2025-07-28T19:23:26Z,58.59,115.42,0.00,0.00,0.00,0.00,0.00,59.27,10.75,0.00,5.46,-0.00,-0.23,-0.00,0.01,-0.00
2025-07-28T19:23:26Z,58.59,115.42,0.00,0.00,0.00,0.00,0.00,59.27,10.75,0.00,5.46,0.00,-0.23,-0.00,0.01,-0.00
2025-07-28T19:23:26Z,58.59,115.42,0.00,0.00,0.00,0.00,0.00,59.27,10.75,0.00,5.46,-0.00,-0.23,-0.00,0.01,-0.00
2025-07-28T19:23:26Z,58.59,115.42,0.00,0.00,0.00,0.00,0.00,59.27,10.75,0.00,5.46,0.00,-0.23,-0.00,0.01,-0.00
2025-07-28T19:23:26Z,58.59,115.42,0.00,0.00,0.00,0.00,0.00,59.27,10.75,0.00,5.46,0.00,-0.23,-0.00,0.01,-0.00
2025-07-28T19:23:26Z,58.59,115.42,0.00,0.00,0.00,0.00,0.00,59.27,10.75,0.00,5.46,0.00,-0.23,-0.00,0.01,-0.00
2025-07-28T19:23:26Z,58.59,115.42,0.00,0.00,0.00,0.00,0.00,59.27,10.75,0.00,5.46,-0.00,-0.23,-0.00,0.01,-0.00
2025-07-28T19:23:26Z,58.59,115.42,0.00,0.00,0.00,0.00,0.00,59.27,10.75,0.00,5.46,-0.00,-0.23,-0.00,0.01,-0.00
2025-07-28T19:23:27Z,58.59,115.42,0.00,0.00,0.00,0.00,0.00,59.27,10.75,0.00,5.46,0.00,-0.23,-0.00,0.01,-0.00
2025-07-28T19:23:27Z,58.59,115.42,0.00,0.00,0.00,0.00,0.00,59.27,10.75,0.00,5.46,-0.00,-0.23,-0.00,0.01,-0.00
2025-07-28T19:23:27Z,58.59,115.42,0.00,0.00,0.00,0.00,0.00,59.27,10.75,0.00,5.46,0.00,-0.23,-0.00,0.01,-0.00
2025-07-28T19:23:27Z,58.59,115.42,0.00,0.00,0.00,0.00,0.00,59.27,10.75,0.00,5.46,0.00,-0.23,-0.00,0.01,-0.00
2025-07-28T19:23:27Z,58.59,115.42,0.00,0.00,0.00,0.00,0.00,59.27,10.75,0.00,5.46,0.00,-0.23,-0.00,0.01,-0.00
2025-07-28T19:23:27Z,58.59,115.42,0.00,0.00,0.00,0.00,0.00,59.27,10.75,0.00,5.46,-0.00,-0.23,-0.00,0.01,-0.00
2025-07-28T19:23:27Z,58.59,115.42,0.00,0.00,0.00,0.00,0.00,59.27,10.75,0.00,5.46,0.00,-0.23,-0.00,0.01,-0.00
2025-07-28T19:23:27Z,58.59,115.42,0.00,0.00,0.00,0.00,0.00,59.27,10.75,0.00,5.46,-0.00,-0.23,-0.00,0.01,-0.00
2025-07-28T19:23:27Z,58.59,115.42,0.00,0.00,0.00,0.00,0.00,59.27,10.75,0.00,5.46,0.00,-0.23,-0.00,0.01,-0.00
2025-07-28T19:23:27Z,58.59,115.42,0.00,0.00,0.00,0.00,0.00,59.27,10.75,0.00,5.46,-0.00,-0.23,-0.00,0.01,-0.00
2025-07-28T19:23:28Z,58.59,115.42,0.00,0.00,0.00,0.00,0.00,59.27,10.75,0.00,5.46,0.00,-0.23,-0.00,0.01,-0.00
2025-07-28T19:23:28Z,58.59,115.42,0.00,0.00,0.00,0.00,0.00,59.27,10.75,0.00,5.46,-0.00,-0.23,-0.00,0.01,-0.00
2025-07-28T19:23:28Z,58.59,115.42,0.00,0.00,0.00,0.00,0.00,59.27,10.75,0.00,5.46,-0.00,-0.23,-0.00,0.01,-0.00
2025-07-28T19:23:28Z,58.59,115.42,0.00,0.00,0.00,0.00,0.00,59.27,10.75,0.00,5.46,0.00,-0.23,0.00,0.01,0.00
2025-07-28T19:23:28Z,58.59,115.42,0.00,0.00,0.00,0.00,0.00,59.27,10.75,0.00,5.46,0.00,-0.23,-0.00,0.01,-0.00
2025-07-28T19:23:28Z,58.59,115.42,0.00,0.00,0.00,0.00,0.00,59.27,10.75,0.00,5.46,-0.00,-0.23,-0.00,0.01,-0.00
2025-07-28T19:23:28Z,58.59,115.42,0.00,0.00,0.00,0.00,0.00,59.27,10.75,0.00,5.46,0.00,-0.23,-0.00,0.01,-0.00
2025-07-28T19:23:28Z,58.59,115.42,0.00,0.00,0.00,0.00,0.00,59.26,10.75,0.00,5.46,-0.00,-0.23,-0.00,0.01,0.00
2025-07-28T19:23:28Z,58.59,115.42,0.00,0.00,0.00,0.00,0.00,59.26,10.75,0.00,5.46,0.00,-0.23,-0.00,0.01,-0.00
2025-07-28T19:23:28Z,58.59,115.42,0.00,0.00,0.00,0.00,0.00,59.26,10.75,0.00,5.46,0.00,-0.23,0.00,0.01,0.00
2025-07-28T19:23:29Z,58.59,115.42,0.00,0.00,0.00,0.00,0.00,59.26,10.75,0.00,5.46,-0.00,-0.23,-0.00,0.01,-0.00
2025-07-28T19:23:29Z,58.59,115.42,0.00,0.00,0.00,0.00,0.00,59.26,10.75,0.00,5.46,0.00,-0.23,-0.00,0.01,-0.00
2025-07-28T19:23:29Z,58.59,115.42,0.00,0.00,0.00,0.00,0.00,59.26,10.75,0.00,5.46,-0.00,-0.23,0.00,0.01,0.00
2025-07-28T19:23:29Z,58.59,115.42,0.00,0.00,0.00,0.00,0.00,59.26,10.75,0.00,5.46,-0.00,-0.23,-0.00,0.01,-0.00
2025-07-28T19:23:29Z,58.59,115.42,0.00,0.00,0.00,0.00,0.00,59.26,10.75,0.00,5.46,0.00,-0.23,-0.00,0.01,-0.00
2025-07-28T19:23:29Z,58.59,115.42,0.00,-0.00,0.00,0.00,0.00,59.26,10.75,0.00,5.46,-0.00,-0.23,0.00,0.01,0.00
2025-07-28T19:23:29Z,58.59,115.42,0.00,-0.00,0.00,0.00,0.00,59.26,10.75,0.00,5.46,-0.00,-0.23,0.00,0.01,0.00
2025-07-28T19:23:29Z,58.59,115.42,0.00,-0.00,0.00,0.20,0.00,59.26,10.76,0.00,5.46,0.00,-0.23,0.00,0.01,-0.00
2025-07-28T19:23:30Z,58.59,115.42,0.00,-0.02,18.91,0.20,1.21,59.26,10.76,0.10,5.46,0.00,-0.24,-0.12,0.01,-0.01
2025-07-28T19:23:30Z,58.59,115.41,0.00,-0.00,123.58,0.20,7.88,59.26,10.76,0.62,5.46,-0.00,-0.25,-0.02,0.01,-0.00
2025-07-28T19:23:30Z,58.59,115.41,0.00,0.00,179.03,0.20,11.41,59.26,10.76,0.86,5.46,-0.01,-0.25,-0.00,0.01,-0.00
2025-07-28T19:23:30Z,58.59,115.41,0.00,0.00,204.76,0.20,13.05,59.26,10.76,0.95,5.46,-0.01,-0.26,-0.00,0.01,-0.00
2025-07-28T19:23:30Z,58.59,115.41,0.00,0.00,224.83,0.20,14.33,59.26,10.76,1.02,5.46,-0.01,-0.26,0.00,0.01,0.00
2025-07-28T19:23:30Z,58.59,115.41,0.00,0.01,256.30,0.20,16.34,59.26,10.76,1.11,5.45,-0.02,-0.25,0.00,0.01,0.00
2025-07-28T19:23:30Z,58.59,115.41,0.00,0.01,287.24,0.20,18.31,59.26,10.76,1.19,5.45,-0.02,-0.25,0.01,0.01,0.00
2025-07-28T19:23:30Z,58.59,115.41,0.00,0.01,306.97,0.20,19.57,59.26,10.76,1.23,5.45,-0.02,-0.25,0.01,0.01,0.00
2025-07-28T19:23:30Z,58.59,115.41,0.00,0.01,327.14,0.20,20.86,59.26,10.76,1.27,5.45,-0.02,-0.25,0.01,0.01,0.00
2025-07-28T19:23:31Z,58.59,115.41,0.00,0.01,344.42,0.20,21.96,59.26,10.76,1.29,5.45,-0.02,-0.25,0.01,0.01,0.00
2025-07-28T19:23:31Z,58.59,115.41,0.00,0.01,364.82,0.20,23.26,59.26,10.76,1.32,5.44,-0.02,-0.25,0.01,0.01,0.00
2025-07-28T19:23:31Z,58.59,115.41,0.00,0.01,380.95,0.20,24.29,59.26,10.76,1.33,5.44,-0.02,-0.25,0.01,0.01,0.00
2025-07-28T19:23:31Z,58.59,115.41,0.00,0.01,395.91,0.20,25.24,59.26,10.76,1.33,5.44,-0.02,-0.25,0.01,0.01,0.00
2025-07-28T19:23:31Z,58.59,115.41,0.00,0.01,409.76,0.20,26.12,59.26,10.76,1.33,5.44,-0.02,-0.25,0.01,0.01,0.00
2025-07-28T19:23:31Z,58.59,115.41,0.00,0.01,422.56,0.20,26.94,59.26,10.76,1.33,5.43,-0.02,-0.25,0.01,0.01,0.00
2025-07-28T19:23:31Z,58.59,115.41,0.00,0.01,431.52,0.20,27.51,59.26,10.76,1.33,5.43,-0.02,-0.25,0.01,0.01,0.00
2025-07-28T19:23:31Z,58.59,115.41,0.00,0.01,443.53,0.22,28.28,59.26,10.76,1.32,5.43,-0.02,-0.25,0.01,0.01,0.00
2025-07-28T19:23:31Z,58.59,115.41,0.00,0.01,455.35,0.24,29.03,59.26,10.76,1.32,5.43,-0.02,-0.25,0.00,0.01,0.00
2025-07-28T19:23:31Z,58.59,115.41,0.00,0.01,463.15,0.26,29.53,59.26,10.76,1.31,5.43,-0.02,-0.25,0.00,0.01,0.00
2025-07-28T19:23:32Z,58.59,115.41,0.00,0.01,472.55,0.28,30.13,59.26,10.76,1.31,5.42,-0.02,-0.25,0.00,0.01,0.00
2025-07-28T19:23:32Z,58.59,115.41,0.00,0.01,480.57,0.30,30.64,59.26,10.76,1.32,5.42,-0.02,-0.25,0.00,0.01,0.00
2025-07-28T19:23:32Z,58.59,115.41,0.00,-0.01,507.28,0.32,32.34,59.26,10.76,1.38,5.42,-0.02,-0.25,-0.10,0.01,-0.01
2025-07-28T19:23:32Z,58.59,115.41,0.00,0.00,633.20,0.34,40.37,59.26,10.76,1.67,5.41,-0.07,-0.27,-0.10,0.01,-0.01
2025-07-28T19:23:32Z,58.59,115.41,0.00,0.01,679.47,0.36,43.32,59.26,10.76,1.77,5.41,-0.09,-0.27,-0.08,0.01,-0.01
2025-07-28T19:23:32Z,58.59,115.41,0.00,0.02,754.35,0.38,48.09,59.26,10.76,1.92,5.40,-0.12,-0.28,-0.05,0.01,-0.00
2025-07-28T19:23:32Z,58.59,115.41,0.00,0.03,817.07,0.40,52.09,59.26,10.76,2.03,5.38,-0.14,-0.28,-0.03,0.01,-0.00
2025-07-28T19:23:32Z,58.59,115.41,0.01,0.04,873.45,0.42,55.69,59.26,10.76,2.13,5.37,-0.15,-0.29,-0.01,0.01,-0.00
2025-07-28T19:23:32Z,58.59,115.41,0.01,0.04,923.93,0.44,58.91,59.26,10.76,2.22,5.35,-0.16,-0.29,-0.01,0.01,0.00
2025-07-28T19:23:32Z,58.59,115.41,0.01,0.04,955.69,0.46,60.93,59.26,10.76,2.27,5.34,-0.15,-0.29,-0.00,0.01,0.00
2025-07-28T19:23:33Z,58.59,115.41,0.02,0.05,1000.53,0.48,63.79,59.27,10.76,2.35,5.33,-0.11,-0.29,0.00,0.01,-0.00
2025-07-28T19:23:33Z,58.59,115.41,0.03,0.07,1035.06,0.50,65.99,59.27,10.76,2.42,5.32,-0.08,-0.29,0.00,0.01,-0.00
2025-07-28T19:23:33Z,58.59,115.41,0.04,0.09,1004.98,0.52,64.07,59.27,10.76,0.00,5.31,-0.06,-0.28,0.15,0.01,0.00
2025-07-28T19:23:33Z,58.59,115.42,0.05,0.09,950.05,0.54,60.57,59.27,10.76,0.00,5.30,-0.04,-0.26,0.12,0.01,0.01
2025-07-28T19:23:33Z,58.59,115.42,0.05,0.09,925.79,0.56,59.02,59.27,10.76,0.00,5.30,-0.03,-0.26,0.10,0.01,0.00
2025-07-28T19:23:33Z,58.59,115.42,0.05,0.07,879.65,0.58,56.08,59.27,10.76,0.00,5.30,-0.02,-0.25,0.07,0.01,0.00
2025-07-28T19:23:33Z,58.59,115.42,0.04,0.05,839.43,0.60,53.52,59.27,10.76,0.00,5.30,-0.01,-0.24,0.05,0.01,0.00
2025-07-28T19:23:33Z,58.59,115.42,0.02,0.02,798.67,0.62,50.92,59.28,10.76,0.00,5.30,-0.00,-0.24,0.03,0.01,0.00
2025-07-28T19:23:33Z,58.59,115.42,0.00,-0.00,768.35,0.66,48.99,59.28,10.76,0.00,5.30,0.00,-0.23,0.03,0.01,0.00
2025-07-28T19:23:33Z,58.59,115.42,0.00,-0.02,731.76,0.66,46.65,59.28,10.76,0.00,5.30,0.11,-0.23,0.02,0.01,0.00
2025-07-28T19:23:34Z,58.59,115.42,0.00,-0.03,702.00,0.66,44.76,59.28,10.76,0.00,5.32,0.13,-0.23,0.01,0.01,0.00
2025-07-28T19:23:34Z,58.59,115.42,0.00,-0.03,675.88,0.66,43.09,59.28,10.76,0.00,5.33,0.13,-0.23,0.01,0.01,0.00
2025-07-28T19:23:34Z,58.59,115.42,0.00,-0.03,657.53,0.66,41.92,59.28,10.76,0.00,5.34,0.12,-0.23,0.01,0.01,0.00
2025-07-28T19:23:34Z,58.59,115.42,0.00,-0.02,622.27,0.66,39.67,59.28,10.76,0.00,5.35,0.10,-0.23,0.01,0.01,-0.00
2025-07-28T19:23:34Z,58.59,115.42,0.00,-0.02,596.97,0.66,38.06,59.28,10.76,0.00,5.36,0.09,-0.23,0.00,0.01,-0.00
2025-07-28T19:23:34Z,58.59,115.42,0.00,-0.02,574.54,0.66,36.63,59.28,10.76,0.00,5.37,0.08,-0.23,0.00,0.01,-0.00
2025-07-28T19:23:34Z,58.59,115.42,0.00,-0.02,552.77,0.66,35.24,59.28,10.76,0.00,5.38,0.07,-0.22,0.00,0.01,-0.00
2025-07-28T19:23:34Z,58.59,115.42,0.00,-0.02,524.00,0.66,33.41,59.29,10.76,0.00,5.39,0.07,-0.22,0.00,0.01,-0.00
2025-07-28T19:23:34Z,58.59,115.42,0.00,-0.01,505.34,0.66,32.22,59.29,10.76,0.00,5.39,0.06,-0.22,0.00,0.01,-0.00
2025-07-28T19:23:34Z,58.59,115.42,0.00,-0.01,481.62,0.66,30.70,59.29,10.76,0.00,5.40,0.06,-0.22,0.00,0.01,-0.00
2025-07-28T19:23:35Z,58.59,115.42,0.00,-0.01,461.95,0.66,29.45,59.29,10.76,0.00,5.40,0.05,-0.22,0.00,0.01,-0.00
2025-07-28T19:23:35Z,58.59,115.42,0.00,-0.01,439.08,0.66,27.99,59.29,10.76,0.00,5.41,0.05,-0.22,0.00,0.01,-0.00
2025-07-28T19:23:35Z,58.59,115.42,0.00,-0.01,421.72,0.66,26.89,59.29,10.76,0.00,5.41,0.04,-0.22,0.00,0.01,-0.00
2025-07-28T19:23:35Z,58.59,115.42,0.00,-0.01,402.78,0.66,25.68,59.29,10.76,0.00,5.42,0.04,-0.22,0.00,0.01,0.00
2025-07-28T19:23:35Z,58.59,115.42,0.00,-0.01,383.95,0.66,24.48,59.29,10.76,0.00,5.42,0.04,-0.22,0.00,0.01,0.00
2025-07-28T19:23:35Z,58.59,115.42,0.00,-0.01,354.88,0.66,22.62,59.29,10.76,0.00,5.42,0.04,-0.22,0.00,0.01,0.00
2025-07-28T19:23:35Z,58.59,115.42,0.00,-0.01,334.24,0.66,21.31,59.29,10.76,0.00,5.43,0.03,-0.22,0.00,0.01,0.00
2025-07-28T19:23:35Z,58.59,115.42,0.00,-0.01,315.11,0.66,20.09,59.29,10.76,0.00,5.43,0.03,-0.22,0.00,0.01,0.00
2025-07-28T19:23:35Z,58.59,115.42,0.00,-0.01,297.46,0.66,18.96,59.29,10.76,0.00,5.43,0.03,-0.22,0.00,0.01,0.00
2025-07-28T19:23:35Z,58.59,115.42,0.00,-0.01,272.09,0.66,17.35,59.29,10.76,0.00,5.44,0.03,-0.22,0.01,0.01,0.00
2025-07-28T19:23:36Z,58.59,115.42,0.00,-0.01,247.55,0.66,15.78,59.29,10.76,0.00,5.44,0.03,-0.22,0.01,0.01,0.00
2025-07-28T19:23:36Z,58.59,115.42,0.00,-0.01,225.72,0.66,14.39,59.29,10.76,0.00,5.44,0.03,-0.22,0.01,0.01,0.00
2025-07-28T19:23:36Z,58.59,115.42,0.00,-0.01,200.30,0.66,12.77,59.29,10.76,0.00,5.44,0.02,-0.22,0.01,0.01,0.00
2025-07-28T19:23:36Z,58.59,115.42,0.00,-0.00,172.37,0.66,10.99,59.29,10.76,0.00,5.45,0.02,-0.22,0.01,0.01,0.00
2025-07-28T19:23:36Z,58.59,115.42,0.00,-0.00,140.39,0.66,8.95,59.29,10.76,0.00,5.45,0.02,-0.22,0.02,0.01,0.00
2025-07-28T19:23:36Z,58.59,115.42,0.00,-0.00,100.54,0.66,6.41,59.29,10.76,0.00,5.45,0.02,-0.21,0.03,0.01,0.00
2025-07-28T19:23:36Z,58.59,115.42,0.00,0.01,22.20,0.66,1.42,59.29,10.76,0.00,5.45,0.02,-0.21,0.14,0.01,0.01
2025-07-28T19:23:36Z,58.59,115.42,0.00,-0.01,0.00,0.66,0.00,59.29,10.76,0.00,5.46,0.02,-0.19,-0.06,0.01,-0.00
2025-07-28T19:23:36Z,58.59,115.42,0.00,-0.02,0.00,0.66,0.00,59.29,10.76,0.00,5.46,0.01,-0.20,-0.10,0.01,-0.01
2025-07-28T19:23:36Z,58.59,115.42,0.00,-0.01,0.00,0.66,0.00,59.29,10.76,0.00,5.46,0.01,-0.21,-0.08,0.01,-0.01
2025-07-28T19:23:37Z,58.59,115.42,0.00,-0.01,0.00,0.66,0.00,59.29,10.76,0.00,5.46,0.01,-0.22,-0.06,0.01,-0.00
2025-07-28T19:23:37Z,58.59,115.42,0.00,-0.01,0.00,0.66,0.00,59.29,10.76,0.00,5.46,0.00,-0.22,-0.04,0.01,-0.00
2025-07-28T19:23:37Z,58.59,115.42,0.00,-0.01,0.00,0.66,0.00,59.29,10.76,0.00,5.46,0.00,-0.22,-0.03,0.01,-0.00
2025-07-28T19:23:37Z,58.59,115.42,0.00,-0.00,0.00,0.66,0.00,59.29,10.76,0.00,5.46,0.00,-0.23,-0.02,0.01,-0.00
2025-07-28T19:23:37Z,58.59,115.42,0.00,-0.00,0.00,0.66,0.00,59.29,10.76,0.00,5.46,0.00,-0.23,-0.02,0.01,-0.00
2025-07-28T19:23:37Z,58.59,115.42,0.00,-0.00,0.00,0.66,0.00,59.29,10.76,0.00,5.46,0.00,-0.23,-0.01,0.01,-0.00
2025-07-28T19:23:37Z,58.59,115.42,0.00,-0.00,0.00,0.66,0.00,59.30,10.76,0.00,5.46,0.00,-0.23,-0.01,0.01,-0.00
2025-07-28T19:23:37Z,58.59,115.42,0.00,-0.00,0.00,0.66,0.00,59.30,10.76,0.00,5.46,0.00,-0.23,-0.01,0.01,-0.00
2025-07-28T19:23:37Z,58.59,115.42,0.00,-0.00,0.00,0.66,0.00,59.30,10.76,0.00,5.46,0.00,-0.23,-0.00,0.01,-0.00
2025-07-28T19:23:37Z,58.59,115.42,0.00,-0.00,0.00,0.66,0.00,59.30,10.76,0.00,5.46,0.00,-0.23,-0.00,0.01,-0.00
2025-07-28T19:23:38Z,58.59,115.42,0.00,-0.00,0.00,0.66,0.00,59.30,10.76,0.00,5.46,0.00,-0.23,-0.00,0.01,-0.00
2025-07-28T19:23:38Z,58.59,115.42,0.00,-0.00,0.00,0.66,0.00,59.30,10.76,0.00,5.46,0.00,-0.23,-0.00,0.01,-0.00
2025-07-28T19:23:38Z,58.59,115.42,0.00,-0.00,0.00,0.66,0.00,59.30,10.76,0.00,5.46,0.00,-0.23,-0.00,0.01,-0.00
2025-07-28T19:23:38Z,58.59,115.42,0.00,-0.00,0.00,0.66,0.00,59.30,10.76,0.00,5.46,-0.00,-0.23,-0.00,0.01,-0.00
2025-07-28T19:23:38Z,58.59,115.42,0.00,-0.00,0.00,0.66,0.00,59.30,10.76,0.00,5.46,-0.00,-0.23,-0.00,0.01,-0.00
2025-07-28T19:23:38Z,58.59,115.42,0.00,0.00,0.00,0.66,0.00,59.30,10.76,0.00,5.46,-0.00,-0.23,-0.00,0.01,-0.00
2025-07-28T19:23:38Z,58.59,115.42,0.00,0.00,0.00,0.66,0.00,59.30,10.76,0.00,5.46,-0.00,-0.23,-0.00,0.01,-0.00
2025-07-28T19:23:38Z,58.59,115.42,0.00,0.00,0.00,0.66,0.00,59.30,10.76,0.00,5.46,-0.00,-0.23,-0.00,0.01,-0.00
2025-07-28T19:23:38Z,58.59,115.42,0.00,0.00,0.00,0.66,0.00,59.30,10.76,0.00,5.46,-0.00,-0.23,-0.00,0.01,-0.00
2025-07-28T19:23:38Z,58.59,115.42,0.00,0.00,0.00,0.66,0.00,59.30,10.76,0.00,5.46,-0.00,-0.23,-0.00,0.01,-0.00
2025-07-28T19:23:39Z,58.59,115.42,0.00,0.00,0.00,0.66,0.00,59.30,10.76,0.00,5.46,-0.00,-0.23,-0.00,0.01,-0.00
2025-07-28T19:23:39Z,58.59,115.42,0.00,0.00,0.00,0.66,0.00,59.30,10.76,0.00,5.46,-0.00,-0.23,-0.00,0.01,-0.00
2025-07-28T19:23:39Z,58.59,115.42,0.00,0.00,0.00,0.66,0.00,59.30,10.76,0.00,5.46,-0.00,-0.23,-0.00,0.01,-0.00
2025-07-28T19:23:39Z,58.59,115.42,0.00,0.00,0.00,0.66,0.00,59.30,10.76,0.00,5.46,-0.00,-0.23,-0.00,0.01,-0.00
2025-07-28T19:23:39Z,58.59,115.42,0.00,0.00,0.00,0.66,0.00,59.30,10.76,0.00,5.46,-0.00,-0.23,-0.00,0.01,-0.00
2025-07-28T19:23:39Z,58.59,115.42,0.00,0.00,0.00,0.66,0.00,59.30,10.76,0.00,5.46,-0.00,-0.23,-0.00,0.01,-0.00
2025-07-28T19:23:39Z,58.59,115.42,0.00,0.00,0.00,0.66,0.00,59.30,10.76,0.00,5.46,-0.00,-0.23,-0.00,0.01,-0.00
2025-07-28T19:23:39Z,58.59,115.42,0.00,0.00,0.00,0.66,0.00,59.30,10.76,0.00,5.46,-0.00,-0.23,-0.00,0.01,-0.00
2025-07-28T19:23:39Z,58.59,115.42,0.00,0.00,0.00,0.66,0.00,59.30,10.76,0.00,5.46,-0.00,-0.23,-0.00,0.01,-0.00
2025-07-28T19:23:39Z,58.59,115.42,0.00,0.00,0.00,0.66,0.00,59.30,10.76,0.00,5.46,-0.00,-0.23,-0.00,0.01,-0.00
2025-07-28T19:23:40Z,58.59,115.42,0.00,0.00,0.00,0.66,0.00,59.30,10.76,0.00,5.46,-0.00,-0.23,-0.00,0.01,-0.00
2025-07-28T19:23:40Z,58.59,115.42,0.00,0.00,0.00,0.66,0.00,59.30,10.76,0.00,5.46,-0.00,-0.23,-0.00,0.01,-0.00
2025-07-28T19:23:40Z,58.59,115.42,0.00,0.00,0.00,0.66,0.00,59.30,10.76,0.00,5.46,-0.00,-0.23,-0.00,0.01,-0.00
2025-07-28T19:23:40Z,58.59,115.42,0.00,-0.00,0.00,0.20,0.00,59.30,10.76,0.00,5.46,0.00,-0.23,-0.00,0.01,-0.00
2025-07-28T19:23:40Z,58.59,115.42,0.00,-0.02,18.90,0.20,1.20,59.30,10.76,0.10,5.46,0.00,-0.24,-0.12,0.01,-0.01
2025-07-28T19:23:40Z,58.59,115.42,0.00,-0.01,60.02,0.20,3.83,59.30,10.76,0.31,5.46,-0.00,-0.25,-0.04,0.01,-0.00
2025-07-28T19:23:40Z,58.59,115.42,0.00,-0.00,96.53,0.20,6.15,59.30,10.76,0.49,5.46,-0.00,-0.25,-0.02,0.01,-0.00
2025-07-28T19:23:40Z,58.59,115.42,0.00,-0.00,131.30,0.20,8.37,59.30,10.76,0.65,5.46,-0.01,-0.25,-0.01,0.01,-0.00
2025-07-28T19:23:40Z,58.59,115.42,0.00,0.00,161.79,0.20,10.31,59.30,10.76,0.79,5.46,-0.01,-0.25,-0.01,0.01,-0.00
2025-07-28T19:23:40Z,58.59,115.42,0.00,0.00,195.36,0.20,12.45,59.30,10.76,0.92,5.46,-0.01,-0.26,-0.00,0.01,-0.00
2025-07-28T19:23:41Z,58.59,115.42,0.00,0.00,220.23,0.20,14.04,59.30,10.76,1.00,5.46,-0.01,-0.26,0.00,0.01,0.00
2025-07-28T19:23:41Z,58.59,115.42,0.00,0.01,243.78,0.20,15.54,59.30,10.76,1.08,5.46,-0.02,-0.25,0.00,0.01,0.00
2025-07-28T19:23:41Z,58.59,115.42,0.00,0.01,267.98,0.20,17.08,59.30,10.76,1.14,5.45,-0.02,-0.25,0.00,0.01,0.00
2025-07-28T19:23:41Z,58.59,115.42,0.00,0.01,294.31,0.20,18.76,59.30,10.76,1.21,5.45,-0.02,-0.25,0.01,0.01,0.00
2025-07-28T19:23:41Z,58.59,115.42,0.00,0.01,306.73,0.20,19.55,59.30,10.76,1.23,5.45,-0.02,-0.25,0.01,0.01,0.00
2025-07-28T19:23:41Z,58.59,115.42,0.00,0.01,330.11,0.20,21.05,59.30,10.76,1.27,5.45,-0.02,-0.25,0.01,0.01,0.00
2025-07-28T19:23:41Z,58.59,115.42,0.00,0.01,350.17,0.20,22.32,59.30,10.76,1.30,5.45,-0.02,-0.25,0.01,0.01,0.00
2025-07-28T19:23:41Z,58.59,115.42,0.00,0.01,367.34,0.20,23.42,59.30,10.76,1.32,5.44,-0.02,-0.25,0.01,0.01,0.00
2025-07-28T19:23:41Z,58.59,115.42,0.00,0.01,381.99,0.20,24.35,59.30,10.76,1.33,5.44,-0.02,-0.25,0.01,0.01,0.00
2025-07-28T19:23:41Z,58.59,115.42,0.00,0.01,400.40,0.20,25.53,59.30,10.76,1.33,5.44,-0.02,-0.25,0.01,0.01,0.00
2025-07-28T19:23:42Z,58.59,115.42,0.00,0.01,413.90,0.20,26.39,59.30,10.76,1.33,5.44,-0.02,-0.25,0.01,0.01,0.00
2025-07-28T19:23:42Z,58.59,115.42,0.00,0.01,425.37,0.20,27.12,59.30,10.76,1.33,5.43,-0.02,-0.25,0.01,0.01,0.00
2025-07-28T19:23:42Z,58.59,115.42,0.00,0.01,437.88,0.20,27.92,59.30,10.76,1.32,5.43,-0.02,-0.25,0.01,0.01,0.00
2025-07-28T19:23:42Z,58.59,115.42,0.00,0.01,448.49,0.20,28.59,59.30,10.76,1.31,5.43,-0.02,-0.25,0.00,0.01,0.00
2025-07-28T19:23:42Z,58.59,115.42,0.00,0.01,458.26,0.20,29.21,59.31,10.76,1.30,5.43,-0.02,-0.25,0.00,0.01,0.00
2025-07-28T19:23:42Z,58.59,115.42,0.00,0.01,462.85,0.20,29.51,59.31,10.76,1.30,5.43,-0.02,-0.25,0.00,0.01,0.00
2025-07-28T19:23:42Z,58.59,115.42,0.00,0.01,475.50,0.20,30.31,59.31,10.76,1.28,5.42,-0.02,-0.25,0.00,0.01,0.00
2025-07-28T19:23:42Z,58.59,115.42,0.00,-0.00,492.73,0.20,31.41,59.31,10.76,1.30,5.42,-0.02,-0.25,-0.07,0.01,-0.01
2025-07-28T19:23:42Z,58.59,115.42,0.00,-0.00,577.45,0.20,36.81,59.31,10.76,1.47,5.42,-0.04,-0.26,-0.11,0.01,-0.01
2025-07-28T19:23:42Z,58.59,115.42,0.00,0.01,648.38,0.20,41.33,59.31,10.76,1.59,5.41,-0.07,-0.27,-0.07,0.01,-0.01
2025-07-28T19:23:43Z,58.59,115.42,0.00,0.02,706.69,0.20,45.05,59.31,10.76,1.66,5.40,-0.10,-0.28,-0.04,0.00,-0.00
2025-07-28T19:23:43Z,58.59,115.42,0.00,0.03,754.01,0.20,48.07,59.31,10.76,1.71,5.39,-0.11,-0.28,-0.02,0.00,-0.00
2025-07-28T19:23:43Z,58.59,115.42,0.00,0.03,792.00,0.20,50.49,59.31,10.76,1.74,5.38,-0.12,-0.28,-0.01,0.00,-0.00
2025-07-28T19:23:43Z,58.59,115.42,0.00,0.03,828.47,0.20,52.82,59.31,10.76,1.75,5.37,-0.13,-0.28,0.00,0.00,0.00
2025-07-28T19:23:43Z,58.59,115.42,0.00,0.03,862.22,0.20,54.97,59.32,10.76,1.74,5.36,-0.13,-0.28,0.01,0.00,0.00
2025-07-28T19:23:43Z,58.59,115.42,0.00,0.03,890.13,0.20,56.75,59.32,10.76,1.73,5.35,-0.12,-0.28,0.02,0.00,0.00
2025-07-28T19:23:43Z,58.59,115.42,0.00,0.03,912.69,0.20,58.18,59.32,10.76,1.70,5.34,-0.11,-0.28,0.02,0.01,0.00
2025-07-28T19:23:43Z,58.59,115.42,0.00,0.03,931.69,0.20,59.39,59.32,10.76,1.66,5.32,-0.10,-0.27,0.02,0.01,0.00
2025-07-28T19:23:43Z,58.59,115.42,0.01,0.03,945.69,0.20,60.29,59.33,10.76,1.62,5.32,-0.07,-0.27,0.02,0.01,0.00
2025-07-28T19:23:43Z,58.59,115.42,0.01,0.03,955.88,0.20,60.94,59.33,10.76,1.56,5.31,-0.05,-0.27,0.03,0.01,-0.01
2025-07-28T19:23:44Z,58.59,115.42,0.01,0.03,960.47,0.20,61.23,59.33,10.76,1.53,5.30,-0.04,-0.27,0.02,0.01,0.00
2025-07-28T19:23:44Z,58.59,115.42,0.02,0.04,963.27,0.20,61.41,59.33,10.76,1.48,5.30,-0.03,-0.27,0.01,0.01,0.00
2025-07-28T19:23:44Z,58.59,115.42,0.02,0.04,963.90,0.20,61.45,59.34,10.76,1.43,5.30,-0.02,-0.26,0.02,0.01,0.00
2025-07-28T19:23:44Z,58.59,115.42,0.03,0.05,962.25,0.20,61.34,59.34,10.76,1.39,5.30,-0.01,-0.26,0.02,0.01,0.00
2025-07-28T19:23:44Z,58.59,115.42,0.03,0.05,958.93,0.20,61.13,59.35,10.76,1.35,5.30,-0.01,-0.26,0.02,0.01,0.00
2025-07-28T19:23:44Z,58.59,115.42,0.04,0.06,954.68,0.20,60.86,59.35,10.76,1.31,5.29,-0.01,-0.26,0.02,0.01,-0.00
2025-07-28T19:23:44Z,58.59,115.42,0.04,0.06,948.97,0.20,60.49,59.35,10.76,1.28,5.29,-0.00,-0.26,0.02,0.01,-0.00
2025-07-28T19:23:44Z,58.59,115.42,0.05,0.07,941.21,0.20,60.00,59.36,10.76,1.24,5.29,-0.00,-0.26,0.01,0.01,-0.00
2025-07-28T19:23:44Z,58.59,115.42,0.05,0.07,935.74,0.20,59.65,59.36,10.76,1.21,5.29,-0.00,-0.25,0.01,0.00,0.00
2025-07-28T19:23:44Z,58.59,115.42,0.05,0.07,926.71,0.20,59.07,59.36,10.76,1.18,5.29,-0.00,-0.25,0.01,0.00,0.00
2025-07-28T19:23:45Z,58.59,115.42,0.05,0.07,919.98,0.20,58.64,59.37,10.76,1.16,5.29,0.00,-0.25,0.01,0.00,0.00
2025-07-28T19:23:45Z,58.59,115.42,0.05,0.06,910.36,0.20,58.03,59.37,10.76,1.13,5.29,0.00,-0.25,0.01,0.00,0.00
2025-07-28T19:23:45Z,58.59,115.42,0.04,0.06,904.81,0.20,57.68,59.38,10.76,1.12,5.29,0.00,-0.25,0.01,0.00,0.00
2025-07-28T19:23:45Z,58.59,115.42,0.04,0.06,895.84,0.20,57.10,59.38,10.76,1.09,5.29,0.00,-0.25,0.01,0.00,-0.00
2025-07-28T19:23:45Z,58.59,115.42,0.03,0.05,886.99,0.20,56.54,59.38,10.76,1.08,5.29,0.00,-0.25,0.00,0.00,0.00
2025-07-28T19:23:45Z,58.59,115.42,0.03,0.04,877.72,0.20,55.95,59.39,10.76,1.06,5.29,0.00,-0.25,0.00,0.00,0.00
2025-07-28T19:23:45Z,58.59,115.42,0.02,0.03,873.21,0.20,55.66,59.39,10.76,1.05,5.29,0.00,-0.25,0.00,0.00,-0.00
2025-07-28T19:23:45Z,58.59,115.42,0.01,0.01,862.69,0.20,54.99,59.40,10.76,1.03,5.29,0.00,-0.25,0.00,0.00,-0.00
2025-07-28T19:23:45Z,58.59,115.42,0.00,0.00,856.82,0.20,54.61,59.40,10.76,1.03,5.29,0.00,-0.25,0.00,0.00,0.00
2025-07-28T19:23:45Z,58.59,115.42,0.00,-0.01,848.50,0.20,54.08,59.41,10.76,1.01,5.30,0.04,-0.25,0.00,0.00,-0.00
2025-07-28T19:23:46Z,58.59,115.42,0.00,-0.01,843.30,0.20,53.75,59.41,10.76,1.01,5.30,0.06,-0.25,0.00,0.00,-0.00
2025-07-28T19:23:46Z,58.59,115.42,0.00,-0.01,836.94,0.20,53.35,59.42,10.76,1.00,5.31,0.05,-0.25,0.00,0.00,-0.00
2025-07-28T19:23:46Z,58.59,115.42,0.00,-0.01,833.72,0.20,53.14,59.42,10.76,1.00,5.31,0.05,-0.25,0.00,0.00,-0.00
2025-07-28T19:23:46Z,58.59,115.42,0.00,-0.01,827.70,0.20,52.76,59.42,10.76,0.99,5.32,0.04,-0.25,0.00,0.00,-0.00
2025-07-28T19:23:46Z,58.59,115.42,0.00,-0.01,822.60,0.20,52.43,59.43,10.76,0.99,5.32,0.03,-0.25,-0.00,0.00,-0.00
2025-07-28T19:23:46Z,58.59,115.42,0.00,-0.01,818.32,0.22,52.16,59.43,10.76,0.99,5.32,0.03,-0.25,-0.00,0.00,-0.00
2025-07-28T19:23:46Z,58.59,115.42,0.00,-0.00,813.99,0.24,51.88,59.44,10.76,0.99,5.32,0.02,-0.25,-0.00,0.00,-0.00
2025-07-28T19:23:46Z,58.59,115.42,0.00,-0.00,811.51,0.26,51.72,59.44,10.76,1.00,5.33,0.02,-0.25,-0.00,0.00,-0.00
2025-07-28T19:23:46Z,58.59,115.42,0.00,-0.00,809.20,0.28,51.57,59.45,10.76,1.02,5.33,0.02,-0.25,-0.00,0.00,-0.00
2025-07-28T19:23:46Z,58.59,115.42,0.00,-0.00,808.45,0.30,51.53,59.45,10.76,1.03,5.33,0.01,-0.25,-0.00,0.00,-0.00
2025-07-28T19:23:47Z,58.59,115.42,0.00,-0.00,809.11,0.32,51.57,59.46,10.76,1.07,5.33,0.01,-0.25,-0.01,0.00,-0.00
2025-07-28T19:23:47Z,58.59,115.42,0.00,-0.00,810.81,0.34,51.68,59.46,10.76,1.09,5.33,0.01,-0.25,-0.01,0.00,-0.00
2025-07-28T19:23:47Z,58.59,115.42,0.00,-0.00,814.61,0.36,51.92,59.47,10.76,1.13,5.33,0.00,-0.25,-0.01,0.00,-0.00
2025-07-28T19:23:47Z,58.59,115.42,0.00,-0.00,817.43,0.36,52.10,59.47,10.76,1.15,5.33,-0.00,-0.25,-0.01,0.00,-0.00
2025-07-28T19:23:47Z,58.59,115.42,0.00,0.00,824.71,0.38,52.56,59.48,10.76,1.21,5.33,-0.01,-0.25,-0.01,0.00,-0.00
2025-07-28T19:23:47Z,58.59,115.42,0.00,0.00,833.45,0.42,53.12,59.48,10.76,1.26,5.33,-0.01,-0.25,-0.01,0.00,-0.00
2025-07-28T19:23:47Z,58.59,115.42,0.00,0.00,843.38,0.44,53.75,59.49,10.76,1.32,5.33,-0.02,-0.26,-0.01,0.00,-0.00
2025-07-28T19:23:47Z,58.59,115.42,0.00,0.00,858.36,0.46,54.70,59.50,10.76,1.40,5.33,-0.02,-0.26,-0.02,0.00,-0.00
2025-07-28T19:23:47Z,58.59,115.42,0.00,0.01,872.30,0.48,55.59,59.50,10.76,1.48,5.32,-0.03,-0.26,-0.02,0.00,-0.00
2025-07-28T19:23:47Z,58.59,115.42,0.00,0.01,883.88,0.50,56.33,59.51,10.76,1.54,5.32,-0.03,-0.26,-0.02,0.00,-0.00
2025-07-28T19:23:48Z,58.59,115.42,0.00,0.01,900.93,0.52,57.41,59.51,10.76,1.62,5.32,-0.04,-0.26,-0.02,0.00,-0.00
2025-07-28T19:23:48Z,58.59,115.42,0.00,0.01,921.41,0.54,58.72,59.52,10.76,1.73,5.31,-0.05,-0.26,-0.02,0.00,-0.00
2025-07-28T19:23:48Z,58.59,115.42,0.00,0.01,935.03,0.54,59.59,59.52,10.76,1.79,5.31,-0.05,-0.27,-0.02,0.00,-0.00
2025-07-28T19:23:48Z,58.59,115.42,0.01,0.02,962.45,0.58,61.33,59.53,10.76,1.93,5.30,-0.04,-0.27,-0.02,0.00,-0.00
2025-07-28T19:23:48Z,58.59,115.42,0.02,0.03,992.43,0.60,63.24,59.54,10.76,2.08,5.30,-0.03,-0.27,-0.02,0.00,-0.00
2025-07-28T19:23:48Z,58.59,115.42,0.02,0.04,1007.23,0.60,64.18,59.55,10.76,2.15,5.30,-0.02,-0.27,-0.02,0.00,-0.00
2025-07-28T19:23:48Z,58.59,115.42,0.04,0.06,1040.58,0.64,66.31,59.56,10.76,2.32,5.30,-0.02,-0.27,-0.02,0.00,-0.01
2025-07-28T19:23:48Z,58.59,115.42,0.06,0.09,1066.51,0.66,67.96,59.57,10.76,2.46,5.29,-0.02,-0.28,-0.03,0.00,-0.00
2025-07-28T19:23:48Z,58.59,115.42,0.08,0.13,1098.85,0.68,70.02,59.58,10.76,2.63,5.29,-0.01,-0.28,-0.02,360.00,-0.01
2025-07-28T19:23:48Z,58.59,115.42,0.11,0.17,1127.56,0.70,71.85,59.58,10.76,2.80,5.29,-0.01,-0.28,-0.03,360.00,-0.00
2025-07-28T19:23:49Z,58.59,115.42,0.15,0.22,1165.87,0.72,74.29,59.60,10.76,3.01,5.29,-0.01,-0.28,-0.03,360.00,-0.01
2025-07-28T19:23:49Z,58.59,115.42,0.18,0.27,1194.35,0.74,76.10,59.61,10.76,3.18,5.29,-0.01,-0.29,-0.03,360.00,-0.01
2025-07-28T19:23:49Z,58.59,115.42,0.22,0.33,1226.78,0.74,77.41,59.62,10.76,3.38,5.29,-0.01,-0.29,-0.02,360.00,-0.03
2025-07-28T19:23:49Z,58.59,115.42,0.29,0.43,1272.49,0.78,77.41,59.63,10.75,3.66,5.29,-0.01,-0.29,-0.03,359.99,-0.02
2025-07-28T19:23:49Z,58.59,115.42,0.33,0.49,1297.59,0.78,77.41,59.64,10.75,3.82,5.29,-0.01,-0.30,-0.03,359.99,-0.03
2025-07-28T19:23:49Z,58.59,115.42,0.37,0.55,1323.17,0.80,77.41,59.65,10.75,3.98,5.29,-0.01,-0.30,-0.04,359.99,-0.03
2025-07-28T19:23:49Z,58.59,115.42,0.45,0.66,1365.59,0.82,77.41,59.66,10.75,4.27,5.28,-0.01,-0.30,-0.03,359.98,-0.05
2025-07-28T19:23:49Z,58.59,115.42,0.57,0.83,1422.59,0.86,77.41,59.68,10.75,4.67,5.28,-0.01,-0.31,-0.04,359.98,-0.06
2025-07-28T19:23:49Z,58.59,115.43,0.69,0.99,1474.65,0.88,77.40,59.70,10.75,5.06,5.28,-0.02,-0.31,-0.03,359.97,-0.08
2025-07-28T19:23:49Z,58.59,115.43,0.76,1.11,1506.52,0.90,77.40,59.71,10.75,5.31,5.28,-0.02,-0.31,-0.04,359.96,-0.09
2025-07-28T19:23:50Z,58.59,115.43,0.85,1.22,1538.87,0.90,77.40,59.72,10.75,5.56,5.28,-0.02,-0.32,-0.03,359.95,-0.10
2025-07-28T19:23:50Z,58.59,115.43,0.99,1.42,1589.75,0.92,77.40,59.74,10.75,5.96,5.28,-0.02,-0.32,-0.02,359.94,-0.13
2025-07-28T19:23:50Z,58.59,115.43,1.11,1.60,1629.94,0.94,77.40,59.75,10.75,6.29,5.27,-0.02,-0.32,-0.06,359.93,-0.15
2025-07-28T19:23:50Z,58.59,115.44,1.28,1.85,1684.65,0.98,77.39,59.78,10.75,6.73,5.27,-0.02,-0.33,-0.03,359.91,-0.19
2025-07-28T19:23:50Z,58.59,115.44,1.39,2.00,1713.60,0.98,77.39,59.79,10.75,6.97,5.27,-0.02,-0.33,-0.03,359.89,-0.21
2025-07-28T19:23:50Z,58.59,115.44,1.53,2.22,1752.90,1.00,77.39,59.80,10.75,7.29,5.27,-0.02,-0.33,-0.06,359.87,-0.24
2025-07-28T19:23:50Z,58.59,115.45,1.78,2.56,1811.73,1.00,77.38,59.83,10.75,7.77,5.27,-0.02,-0.34,-0.02,359.84,-0.30
2025-07-28T19:23:50Z,58.59,115.45,1.97,2.84,1851.39,1.00,77.38,59.85,10.75,8.08,5.26,-0.02,-0.34,-0.03,359.80,-0.35
2025-07-28T19:23:50Z,58.59,115.46,2.17,3.13,1889.17,1.00,77.38,59.87,10.75,8.38,5.26,-0.02,-0.35,-0.03,359.77,-0.40
2025-07-28T19:23:50Z,58.59,115.46,2.42,3.48,1930.63,1.00,77.38,59.90,10.75,8.71,5.26,-0.02,-0.35,-0.03,359.72,-0.46
2025-07-28T19:23:51Z,58.59,115.47,2.60,3.74,1958.42,1.00,77.37,59.92,10.75,8.93,5.26,-0.02,-0.35,-0.03,359.68,-0.50
2025-07-28T19:23:51Z,58.59,115.47,2.81,4.04,1987.19,1.00,77.37,59.94,10.75,9.15,5.26,-0.02,-0.36,-0.03,359.63,-0.56
2025-07-28T19:23:51Z,58.59,115.48,3.03,4.35,2014.06,1.00,77.37,59.96,10.75,9.36,5.25,-0.02,-0.36,-0.03,359.58,-0.61
2025-07-28T19:23:51Z,58.59,115.49,3.34,4.79,2047.70,1.00,77.36,59.99,10.75,9.63,5.25,-0.02,-0.36,-0.02,359.49,-0.69
2025-07-28T19:23:51Z,58.59,115.50,3.48,5.00,2062.23,1.00,77.36,60.01,10.75,9.74,5.25,-0.02,-0.36,-0.02,359.45,-0.73
2025-07-28T19:23:51Z,58.59,115.51,3.81,5.46,2090.95,1.00,77.35,60.05,10.75,9.97,5.25,-0.02,-0.37,-0.02,359.36,-0.81
2025-07-28T19:23:51Z,58.59,115.52,4.15,5.93,2116.56,1.00,77.35,60.08,10.75,10.17,5.25,-0.02,-0.37,-0.02,359.25,-0.89
2025-07-28T19:23:51Z,58.59,115.52,4.28,6.13,2125.97,1.00,77.35,60.10,10.75,10.24,5.24,-0.02,-0.37,-0.02,359.21,-0.93
2025-07-28T19:23:51Z,58.59,115.54,4.68,6.69,2150.22,1.00,77.34,60.14,10.75,10.44,5.24,-0.02,-0.37,-0.02,359.07,-1.03
2025-07-28T19:23:51Z,58.59,115.55,4.92,7.03,2162.93,1.00,77.34,60.17,10.75,10.54,5.24,-0.01,-0.37,-0.02,358.98,-1.09
2025-07-28T19:23:52Z,58.59,115.56,5.23,7.47,2177.85,1.00,77.33,60.20,10.75,10.66,5.24,-0.01,-0.37,-0.02,358.86,-1.16
2025-07-28T19:23:52Z,58.59,115.57,5.46,7.78,2187.19,1.00,77.33,60.23,10.75,10.73,5.24,-0.01,-0.38,-0.01,358.77,-1.22
2025-07-28T19:23:52Z,58.59,115.58,5.75,8.20,2198.48,1.00,77.32,60.26,10.75,10.82,5.24,-0.01,-0.38,-0.01,358.64,-1.29
2025-07-28T19:23:52Z,58.59,115.60,6.08,8.65,2209.33,1.00,77.32,60.30,10.75,10.91,5.24,-0.01,-0.38,-0.01,358.50,-1.37
2025-07-28T19:23:52Z,58.59,115.61,6.41,9.11,2218.87,1.00,77.31,60.34,10.75,10.99,5.23,-0.01,-0.38,-0.01,358.35,-1.44
2025-07-28T19:23:52Z,58.59,115.63,6.72,9.54,2226.62,1.00,77.31,60.38,10.75,11.05,5.23,-0.01,-0.38,-0.01,358.20,-1.51
2025-07-28T19:23:52Z,58.59,115.65,7.05,10.01,2233.97,1.00,77.30,60.43,10.75,11.12,5.23,-0.01,-0.38,-0.01,358.03,-1.58
2025-07-28T19:23:52Z,58.59,115.67,7.42,10.51,2240.81,1.00,77.30,60.48,10.75,11.17,5.23,-0.01,-0.38,-0.01,357.84,-1.66
2025-07-28T19:23:52Z,58.59,115.68,7.63,10.80,2244.25,1.00,77.29,60.50,10.75,11.20,5.23,-0.01,-0.39,-0.01,357.73,-1.71
2025-07-28T19:23:52Z,58.59,115.70,7.97,11.27,2249.20,1.00,77.28,60.55,10.75,11.25,5.23,-0.01,-0.39,-0.01,357.54,-1.78
2025-07-28T19:23:53Z,58.59,115.72,8.34,11.78,2253.72,1.00,77.28,60.60,10.75,11.29,5.23,-0.01,-0.39,-0.01,357.33,-1.85
2025-07-28T19:23:53Z,58.59,115.74,8.58,12.11,2256.22,1.00,77.27,60.64,10.75,11.31,5.23,-0.01,-0.39,-0.01,357.19,-1.90
2025-07-28T19:23:53Z,58.59,115.76,8.95,12.62,2259.54,1.00,77.27,60.69,10.75,11.34,5.23,-0.01,-0.39,-0.01,356.97,-1.97
2025-07-28T19:23:53Z,58.59,115.78,9.27,13.05,2261.90,1.00,77.26,60.74,10.75,11.36,5.22,-0.01,-0.39,-0.01,356.77,-2.03
2025-07-28T19:23:53Z,58.59,115.80,9.57,13.45,2263.70,1.00,77.25,60.78,10.74,11.38,5.22,-0.01,-0.39,-0.01,356.58,-2.09
2025-07-28T19:23:53Z,58.59,115.81,9.70,13.62,2264.42,1.00,77.25,60.80,10.74,11.39,5.22,-0.01,-0.39,-0.01,356.49,-2.11
2025-07-28T19:23:53Z,58.59,115.84,10.15,14.23,2266.41,1.00,77.24,60.88,10.74,11.41,5.22,-0.01,-0.39,-0.01,356.19,-2.19
2025-07-28T19:23:53Z,58.59,115.88,10.61,14.84,2267.79,1.00,77.23,60.95,10.74,11.43,5.22,-0.01,-0.40,-0.01,355.87,-2.27
2025-07-28T19:23:53Z,58.59,115.90,10.88,15.20,2268.35,1.00,77.22,60.99,10.74,11.44,5.22,-0.01,-0.40,-0.01,355.68,-2.31
2025-07-28T19:23:53Z,58.59,115.93,11.25,15.69,2268.87,1.00,77.21,61.06,10.74,11.45,5.22,-0.01,-0.40,-0.01,355.41,-2.37
2025-07-28T19:23:54Z,58.59,115.95,11.55,16.08,2269.08,1.00,77.21,61.11,10.74,11.45,5.21,-0.01,-0.40,-0.01,355.19,-2.41
2025-07-28T19:23:54Z,58.59,115.98,11.87,16.50,2269.12,1.00,77.20,61.16,10.74,11.46,5.21,-0.01,-0.40,-0.01,354.95,-2.46
2025-07-28T19:23:54Z,58.59,116.01,12.17,16.88,2269.01,1.00,77.19,61.22,10.74,11.46,5.21,-0.02,-0.40,-0.01,354.72,-2.50
2025-07-28T19:23:54Z,58.59,116.03,12.46,17.26,2268.78,1.00,77.18,61.27,10.74,11.47,5.21,-0.02,-0.40,-0.01,354.49,-2.55
2025-07-28T19:23:54Z,58.59,116.06,12.78,17.67,2268.39,1.00,77.18,61.33,10.74,11.47,5.21,-0.02,-0.40,-0.01,354.23,-2.59
2025-07-28T19:23:54Z,58.59,116.09,13.08,18.05,2267.93,1.00,77.17,61.39,10.74,11.47,5.21,-0.02,-0.41,-0.01,353.99,-2.63
2025-07-28T19:23:54Z,58.59,116.12,13.40,18.45,2267.32,1.00,77.16,61.45,10.74,11.47,5.21,-0.02,-0.41,-0.01,353.73,-2.67
2025-07-28T19:23:54Z,58.59,116.16,13.83,18.99,2266.35,1.00,77.15,61.53,10.74,11.47,5.20,-0.02,-0.41,-0.01,353.37,-2.72
2025-07-28T19:23:54Z,58.59,116.19,14.12,19.36,2265.63,1.00,77.14,61.59,10.74,11.47,5.20,-0.02,-0.41,-0.01,353.12,-2.75
2025-07-28T19:23:54Z,58.59,116.22,14.41,19.72,2265.10,1.00,77.13,61.65,10.74,11.47,5.20,-0.02,-0.41,-0.01,352.86,-2.79
2025-07-28T19:23:55Z,58.59,116.26,14.76,20.14,2264.76,1.00,77.12,61.72,10.74,11.47,5.20,-0.02,-0.41,-0.01,352.56,-2.83
2025-07-28T19:23:55Z,58.59,116.29,15.08,20.53,2264.67,1.00,77.11,61.79,10.74,11.47,5.20,-0.02,-0.41,-0.01,352.27,-2.86
2025-07-28T19:23:55Z,58.59,116.32,15.34,20.85,2264.73,1.00,77.11,61.84,10.74,11.47,5.19,-0.02,-0.41,-0.01,352.04,-2.89
2025-07-28T19:23:55Z,58.59,116.35,15.63,21.20,2264.90,1.00,77.10,61.91,10.74,11.47,5.19,-0.02,-0.42,-0.01,351.77,-2.92
2025-07-28T19:23:55Z,58.58,116.39,16.00,21.64,2265.28,1.00,77.09,61.99,10.74,11.48,5.19,-0.02,-0.42,-0.02,351.43,-2.95
2025-07-28T19:23:55Z,58.58,116.43,16.32,22.02,2265.71,1.00,77.08,62.06,10.74,11.48,5.19,-0.02,-0.42,-0.02,351.13,-2.98
2025-07-28T19:23:55Z,58.58,116.47,16.64,22.39,2266.21,1.00,77.07,62.13,10.74,11.48,5.19,-0.02,-0.42,-0.02,350.83,-3.01
2025-07-28T19:23:55Z,58.58,116.50,16.96,22.75,2266.78,1.00,77.06,62.20,10.74,11.49,5.18,-0.02,-0.42,-0.02,350.53,-3.04
2025-07-28T19:23:55Z,58.58,116.55,17.33,23.18,2267.51,1.00,77.04,62.29,10.74,11.49,5.18,-0.02,-0.42,-0.02,350.17,-3.07
2025-07-28T19:23:55Z,58.58,116.57,17.48,23.36,2267.85,1.00,77.04,62.33,10.74,11.49,5.18,-0.02,-0.43,-0.02,350.02,-3.09
2025-07-28T19:23:56Z,58.58,116.62,17.88,23.81,2268.71,1.00,77.03,62.42,10.74,11.50,5.18,-0.03,-0.43,-0.02,349.63,-3.12
2025-07-28T19:23:56Z,58.58,116.66,18.22,25.00,2269.49,1.00,77.01,62.50,10.74,11.50,5.17,0.09,-0.41,0.05,349.29,-3.14
2025-07-28T19:23:56Z,58.58,116.70,18.51,24.33,2270.18,1.00,77.00,62.57,10.74,11.51,5.18,-0.01,-0.42,-0.05,349.00,-3.17
2025-07-28T19:23:56Z,58.58,116.74,18.83,24.72,2270.94,1.00,76.99,62.65,10.74,11.51,5.17,-0.04,-0.42,-0.05,348.68,-3.19
2025-07-28T19:23:56Z,58.58,116.78,19.17,25.13,2271.77,1.00,76.98,62.74,10.74,11.52,5.17,-0.04,-0.43,-0.04,348.34,-3.22
2025-07-28T19:23:56Z,58.58,116.83,19.49,26.10,2272.56,1.00,76.97,62.82,10.74,11.52,5.16,-0.13,-0.43,-0.26,348.01,-3.25
2025-07-28T19:23:56Z,58.58,116.86,19.73,25.51,2273.15,1.00,76.96,62.88,10.73,11.53,5.15,-0.11,-0.45,-0.04,347.77,-3.26
2025-07-28T19:23:56Z,58.58,116.91,20.12,26.07,2274.14,1.00,76.95,62.98,10.73,11.53,5.15,-0.01,-0.45,0.01,347.36,-3.29
2025-07-28T19:23:56Z,58.58,116.96,20.47,26.46,2275.01,1.00,76.93,63.07,10.73,11.54,5.15,-0.01,-0.45,0.01,347.00,-3.31
2025-07-28T19:23:56Z,58.58,117.00,20.76,26.79,2275.75,1.00,76.92,63.15,10.73,11.54,5.15,-0.01,-0.45,0.00,346.70,-3.32
2025-07-28T19:23:57Z,58.58,117.04,21.05,27.10,2276.48,1.00,76.91,63.22,10.73,11.54,5.14,-0.02,-0.45,-0.00,346.39,-3.34
2025-07-28T19:23:57Z,58.58,117.10,21.42,27.48,2277.42,1.00,76.90,63.32,10.73,11.55,5.14,-0.02,-0.45,-0.01,346.00,-3.36
2025-07-28T19:23:57Z,58.58,117.13,21.68,27.75,2278.09,1.00,76.89,63.39,10.73,11.55,5.14,-0.03,-0.45,-0.01,345.72,-3.37
2025-07-28T19:23:57Z,58.58,117.18,22.02,28.09,2278.96,1.00,76.88,63.49,10.73,11.56,5.14,-0.03,-0.45,-0.01,345.36,-3.39
2025-07-28T19:23:57Z,58.58,117.24,22.39,28.44,2279.90,1.00,76.86,63.59,10.73,11.56,5.13,-0.03,-0.45,-0.01,344.96,-3.41
2025-07-28T19:23:57Z,58.58,117.28,22.65,28.69,2280.57,1.00,76.85,63.67,10.73,11.57,5.13,-0.03,-0.46,-0.02,344.68,-3.42
2025-07-28T19:23:57Z,58.58,117.31,22.89,29.07,2281.17,1.00,76.84,63.73,10.73,11.57,5.13,-0.02,-0.46,-0.02,344.42,-3.43
2025-07-28T19:23:57Z,58.58,117.37,23.23,28.96,2282.03,1.00,76.83,63.83,10.73,11.58,5.12,-0.08,-0.46,-0.06,344.05,-3.44
2025-07-28T19:23:57Z,58.58,117.41,23.49,29.20,2282.70,1.00,76.82,63.91,10.73,11.58,5.12,-0.07,-0.46,-0.07,343.76,-3.46
2025-07-28T19:23:57Z,58.58,117.48,23.97,29.46,2283.90,1.00,76.80,64.04,10.73,11.59,5.11,-0.05,-0.47,-0.02,343.24,-3.47
2025-07-28T19:23:58Z,58.58,117.51,24.18,29.63,2284.43,1.00,76.79,64.11,10.73,11.59,5.11,-0.04,-0.47,-0.02,343.01,-3.48
2025-07-28T19:23:58Z,58.58,117.58,24.60,29.98,2285.49,1.00,76.77,64.23,10.73,11.59,5.10,-0.04,-0.48,-0.02,342.54,-3.49
2025-07-28T19:23:58Z,58.58,117.63,24.89,30.21,2286.22,1.00,76.76,64.32,10.73,11.60,5.10,-0.04,-0.48,-0.02,342.22,-3.50
2025-07-28T19:23:58Z,58.58,117.67,25.17,30.45,2286.94,1.00,76.75,64.40,10.73,11.60,5.09,-0.04,-0.48,-0.02,341.90,-3.51
2025-07-28T19:23:58Z,58.58,117.73,25.51,30.71,2287.80,1.00,76.73,64.51,10.73,11.61,5.09,-0.04,-0.48,-0.02,341.52,-3.51
2025-07-28T19:23:58Z,58.58,117.78,25.83,30.95,2288.59,1.00,76.72,64.61,10.73,11.61,5.09,-0.04,-0.48,-0.02,341.17,-3.52
2025-07-28T19:23:58Z,58.58,117.83,26.12,31.02,2289.32,1.00,76.71,64.70,10.73,11.61,5.08,-0.10,-0.49,-0.02,340.85,-3.52
2025-07-28T19:23:58Z,58.58,117.88,26.46,30.84,2290.17,1.00,76.69,64.80,10.73,11.62,5.06,-0.17,-0.49,0.10,340.47,-3.52
2025-07-28T19:23:58Z,58.58,117.93,26.75,30.57,2290.90,1.00,76.68,64.89,10.73,11.62,5.05,-0.07,-0.48,-0.02,340.14,-3.53
2025-07-28T19:23:58Z,58.58,117.99,27.11,30.81,2291.82,1.00,76.67,65.01,10.73,11.63,5.05,-0.04,-0.48,-0.02,339.73,-3.54
2025-07-28T19:23:59Z,58.58,118.04,27.40,31.00,2292.54,1.00,76.65,65.10,10.73,11.63,5.04,-0.04,-0.49,-0.02,339.41,-3.54
2025-07-28T19:23:59Z,58.58,118.07,27.64,31.16,2293.13,1.00,76.64,65.18,10.73,11.63,5.04,-0.04,-0.49,-0.02,339.14,-3.54
2025-07-28T19:23:59Z,58.58,118.13,27.95,31.36,2293.92,1.00,76.63,65.28,10.73,11.64,5.04,-0.04,-0.49,-0.02,338.79,-3.54
2025-07-28T19:23:59Z,58.58,118.18,28.26,31.55,2294.71,1.00,76.61,65.38,10.73,11.64,5.03,-0.04,-0.49,-0.02,338.43,-3.54
2025-07-28T19:23:59Z,58.58,118.24,28.63,31.77,2295.63,1.00,76.60,65.50,10.73,11.65,5.03,-0.04,-0.49,-0.02,338.02,-3.53
2025-07-28T19:23:59Z,58.58,118.29,28.94,32.06,2296.41,1.00,76.58,65.61,10.73,11.65,5.03,-0.03,-0.50,-0.04,337.67,-3.53
2025-07-28T19:23:59Z,58.58,118.35,29.26,32.24,2297.20,1.00,76.57,65.71,10.73,11.66,5.02,-0.03,-0.50,-0.05,337.31,-3.53
2025-07-28T19:23:59Z,58.58,118.39,29.49,32.44,2297.79,1.00,76.56,65.79,10.72,11.66,5.02,-0.03,-0.51,-0.04,337.05,-3.53
2025-07-28T19:23:59Z,58.58,118.43,29.73,32.57,2298.38,1.00,76.55,65.87,10.72,11.66,5.02,-0.04,-0.51,-0.02,336.79,-3.52
2025-07-28T19:23:59Z,58.58,118.51,30.17,32.80,2299.50,1.00,76.52,66.02,10.72,11.67,5.01,-0.04,-0.51,-0.02,336.29,-3.51
2025-07-28T19:24:00Z,58.58,118.56,30.48,32.96,2300.28,1.00,76.51,66.13,10.72,11.67,5.01,-0.04,-0.51,-0.02,335.94,-3.51
2025-07-28T19:24:00Z,58.58,118.63,30.87,33.15,2301.26,1.00,76.49,66.27,10.72,11.68,5.00,-0.04,-0.52,-0.02,335.50,-3.50
2025-07-28T19:24:00Z,58.58,118.68,31.16,33.28,2301.98,1.00,76.48,66.37,10.72,11.68,5.00,-0.04,-0.52,-0.02,335.18,-3.49
2025-07-28T19:24:00Z,58.58,118.73,31.44,33.41,2302.70,1.00,76.46,66.47,10.72,11.69,4.99,-0.04,-0.52,-0.02,334.86,-3.48
2025-07-28T19:24:00Z,58.58,118.79,31.75,33.31,2303.49,1.00,76.45,66.58,10.72,11.69,4.99,-0.17,-0.52,-0.02,334.51,-3.46
2025-07-28T19:24:00Z,58.58,118.84,32.04,32.78,2304.21,1.00,76.43,66.68,10.72,11.69,4.97,-0.13,-0.52,0.02,334.19,-3.46
2025-07-28T19:24:00Z,58.58,118.89,32.35,32.74,2305.00,1.00,76.42,66.79,10.72,11.70,4.96,-0.05,-0.52,-0.02,333.85,-3.45
2025-07-28T19:24:00Z,58.58,118.95,32.66,32.86,2305.78,1.00,76.40,66.90,10.72,11.70,4.96,-0.04,-0.52,-0.02,333.50,-3.44
2025-07-28T19:24:00Z,58.58,119.01,33.05,33.00,2306.76,1.00,76.38,67.05,10.72,11.71,4.95,-0.04,-0.53,-0.02,333.08,-3.42
2025-07-28T19:24:00Z,58.58,119.06,33.33,33.11,2307.49,1.00,76.37,67.15,10.72,11.71,4.95,-0.04,-0.53,-0.02,332.76,-3.41
2025-07-28T19:24:01Z,58.58,119.12,33.62,33.20,2308.21,1.00,76.35,67.26,10.72,11.71,4.95,-0.04,-0.53,-0.02,332.45,-3.40
2025-07-28T19:24:01Z,58.57,119.18,33.98,33.32,2309.12,1.00,76.33,67.39,10.72,11.72,4.94,-0.04,-0.53,-0.02,332.05,-3.38
2025-07-28T19:24:01Z,58.57,119.23,34.24,33.41,2309.78,1.00,76.32,67.49,10.72,11.72,4.94,-0.04,-0.53,-0.03,331.77,-3.36
2025-07-28T19:24:01Z,58.57,119.28,34.54,33.50,2310.56,1.00,76.31,67.60,10.72,11.73,4.93,-0.04,-0.54,-0.03,331.44,-3.35
2025-07-28T19:24:01Z,58.57,119.35,34.91,33.60,2311.48,1.00,76.29,67.74,10.72,11.73,4.93,-0.04,-0.54,-0.03,331.05,-3.33
2025-07-28T19:24:01Z,58.57,119.38,35.06,33.65,2311.87,1.00,76.28,67.80,10.72,11.73,4.92,-0.04,-0.54,-0.03,330.88,-3.32
2025-07-28T19:24:01Z,58.57,119.44,35.39,33.75,2312.73,1.00,76.26,67.93,10.72,11.74,4.92,-0.04,-0.54,0.02,330.53,-3.22
2025-07-28T19:24:01Z,58.57,119.50,35.75,33.89,2313.64,1.00,76.24,68.06,10.72,11.74,4.91,-0.05,-0.54,0.03,330.16,-3.02
2025-07-28T19:24:01Z,58.57,119.57,36.14,34.09,2314.63,1.00,76.22,68.21,10.72,11.75,4.91,-0.03,-0.53,0.08,329.81,-2.63
2025-07-28T19:24:01Z,58.57,119.61,36.34,34.06,2315.15,1.00,76.21,68.29,10.72,11.75,4.91,-0.03,-0.53,0.07,329.64,-2.44
2025-07-28T19:24:02Z,58.57,119.68,36.73,33.92,2316.13,1.00,76.19,68.44,10.72,11.76,4.90,-0.16,-0.52,-0.02,329.36,-1.91
2025-07-28T19:24:02Z,58.57,119.73,36.99,33.43,2316.79,1.00,76.17,68.54,10.72,11.76,4.89,-0.07,-0.52,0.08,329.22,-1.56
2025-07-28T19:24:02Z,58.57,119.79,37.35,33.61,2317.71,1.00,76.15,68.69,10.72,11.77,4.88,-0.04,-0.51,0.07,329.07,-0.95
2025-07-28T19:24:02Z,58.57,119.84,37.63,33.75,2318.43,1.00,76.14,68.80,10.72,11.77,4.88,-0.03,-0.50,0.03,329.00,-0.53
2025-07-28T19:24:02Z,58.57,119.90,37.94,33.91,2319.22,1.00,76.12,68.92,10.72,11.77,4.87,-0.03,-0.50,-0.00,328.97,-0.10
2025-07-28T19:24:02Z,58.57,119.96,38.28,34.12,2320.08,1.00,76.10,69.05,10.72,11.78,4.87,-0.02,-0.50,-0.04,328.98,0.32
2025-07-28T19:24:02Z,58.57,120.02,38.61,34.64,2320.93,1.00,76.08,69.19,10.72,11.78,4.87,0.00,-0.51,-0.01,329.03,0.70
2025-07-28T19:24:02Z,58.57,120.06,38.82,34.60,2321.46,1.00,76.07,69.27,10.72,11.79,4.87,0.02,-0.51,-0.03,329.08,0.91
2025-07-28T19:24:02Z,58.57,120.11,39.21,-15.16,2322.45,1.00,76.05,69.43,10.71,11.79,4.51,-5.31,-0.53,-0.80,329.20,0.83
2025-07-28T19:24:02Z,58.57,120.11,39.35,15.68,2323.04,1.00,76.04,69.52,10.71,11.79,4.33,0.62,-0.50,1.43,329.26,0.90
2025-07-28T19:24:03Z,58.57,120.15,39.58,23.91,2323.85,1.00,76.02,69.66,10.71,11.80,4.40,0.04,-0.49,0.16,329.37,1.16
