Timestamp,Temperature,Altitude,Speed,Vertical Speed,Engine RPMs,Throttle,Oil Pressure,Oil Temperature,Fuel Capacity,Fuel Flow,Pitch,Pitch Rate,Roll,Roll Rate,Yaw,Yaw Rate,Alerts
2025-07-23T20:51:13Z,94.66,-9999.00,0.00,0.00,0.00,0.00,0.00,0.00,10.33,0.00,0.42,0.00,0.00,0.00,270.02,0.00
2025-07-23T20:51:13Z,94.66,-9999.00,0.00,0.00,0.00,0.00,0.00,0.00,10.33,0.00,0.42,0.00,0.00,0.00,270.02,0.00
2025-07-23T20:51:13Z,94.66,-9999.00,0.00,0.00,0.00,0.00,0.00,0.00,10.33,0.00,0.42,0.00,0.00,0.00,0.02,0.00
2025-07-23T20:51:13Z,94.66,-9999.00,0.00,0.00,0.00,0.00,0.00,0.00,10.33,0.00,0.42,0.00,0.00,0.00,0.02,0.00
2025-07-23T20:51:14Z,94.66,-9999.00,0.00,0.00,0.00,0.00,0.00,0.00,10.33,0.00,0.42,0.00,0.00,0.00,0.02,0.00
2025-07-23T20:51:14Z,94.66,-9999.00,0.00,0.00,0.00,0.00,0.00,0.00,10.33,0.00,0.42,0.00,0.00,0.00,0.02,0.00
2025-07-23T20:51:14Z,94.66,-9999.00,0.00,0.00,0.00,0.00,0.00,0.00,10.33,0.00,0.42,0.00,0.00,0.00,0.02,0.00
2025-07-23T20:51:14Z,94.66,-9999.00,0.00,0.00,0.00,0.00,0.00,0.00,10.33,0.00,0.42,0.00,0.00,0.00,0.02,0.00
2025-07-23T20:51:14Z,94.66,-9999.00,0.00,0.00,0.00,0.00,0.00,0.00,10.33,0.00,0.42,0.00,0.00,0.00,0.02,0.00
2025-07-23T20:51:14Z,94.66,-9999.00,0.00,0.00,0.00,0.00,0.00,0.00,10.33,0.00,0.42,0.00,0.00,0.00,0.02,0.00
2025-07-23T20:51:14Z,94.66,-9999.00,0.00,0.00,0.00,0.00,0.00,0.00,10.33,0.00,0.42,0.00,0.00,0.00,0.02,0.00
2025-07-23T20:51:14Z,94.66,-9999.00,0.00,0.00,0.00,0.00,0.00,0.00,10.33,0.00,0.42,0.00,0.00,0.00,0.02,0.00
2025-07-23T20:51:14Z,94.66,-9999.00,0.00,0.00,0.00,0.00,0.00,0.00,10.33,0.00,0.42,0.00,0.00,0.00,0.02,0.00
2025-07-23T20:51:14Z,94.66,-9999.00,0.00,0.00,0.00,0.00,0.00,0.00,10.33,0.00,0.42,0.00,0.00,0.00,0.02,0.00
2025-07-23T20:51:15Z,94.66,-9999.00,0.00,0.00,0.00,0.00,0.00,0.00,10.33,0.00,0.42,0.00,0.00,0.00,0.02,0.00
2025-07-23T20:51:15Z,94.66,-9999.00,0.00,0.00,0.00,0.00,0.00,0.00,10.33,0.00,0.42,0.00,0.00,0.00,0.02,0.00
2025-07-23T20:51:15Z,94.66,-9999.00,0.00,0.00,0.00,0.00,0.00,0.00,10.33,0.00,0.42,0.00,0.00,0.00,0.02,0.00
2025-07-23T20:51:15Z,94.66,-9999.00,0.00,0.00,0.00,0.00,0.00,0.00,10.33,0.00,0.42,0.00,0.00,0.00,0.02,0.00
2025-07-23T20:51:15Z,94.66,-9999.00,0.00,0.00,0.00,0.00,0.00,0.00,10.33,0.00,0.42,0.00,0.00,0.00,0.02,0.00
2025-07-23T20:51:15Z,94.66,-9999.00,0.00,0.00,0.00,0.00,0.00,0.00,10.33,0.00,0.42,0.00,0.00,0.00,0.02,0.00
2025-07-23T20:51:15Z,94.66,-9999.00,0.00,0.00,0.00,0.00,0.00,0.00,10.33,0.00,0.42,0.00,0.00,0.00,0.02,0.00
2025-07-23T20:51:15Z,94.66,-9999.00,0.00,0.00,0.00,0.00,0.00,0.00,10.33,0.00,0.42,0.00,0.00,0.00,0.02,0.00
2025-07-23T20:51:15Z,94.66,-9999.00,0.00,0.00,0.00,0.00,0.00,0.00,10.33,0.00,0.42,0.00,0.00,0.00,0.02,0.00
2025-07-23T20:51:15Z,94.66,-9999.00,0.00,0.00,0.00,0.00,0.00,0.00,10.33,0.00,0.42,0.00,0.00,0.00,0.02,0.00
2025-07-23T20:51:15Z,94.66,-9999.00,0.00,0.00,0.00,0.00,0.00,0.00,10.33,0.00,0.42,0.00,0.00,0.00,0.02,0.00
2025-07-23T20:51:16Z,94.66,-9999.00,0.00,0.00,0.00,0.00,0.00,0.00,10.33,0.00,0.42,0.00,0.00,0.00,0.02,0.00
2025-07-23T20:51:16Z,94.66,-9999.00,0.00,0.00,0.00,0.00,0.00,0.00,10.33,0.00,0.42,0.00,0.00,0.00,0.02,0.00
2025-07-23T20:51:16Z,94.66,-9999.00,0.00,0.00,0.00,0.00,0.00,0.00,10.33,0.00,0.42,0.00,0.00,0.00,0.02,0.00
2025-07-23T20:51:16Z,94.66,-9999.00,0.00,0.00,0.00,0.00,0.00,0.00,10.33,0.00,0.42,0.00,0.00,0.00,0.02,0.00
2025-07-23T20:51:16Z,94.66,-9999.00,0.00,0.00,0.00,0.00,0.00,0.00,10.33,0.00,0.42,0.00,0.00,0.00,0.02,0.00
2025-07-23T20:51:16Z,94.66,-9999.00,0.00,0.00,0.00,0.00,0.00,0.00,10.33,0.00,0.42,0.00,0.00,0.00,0.02,0.00
2025-07-23T20:51:16Z,94.66,-9999.00,0.00,0.00,0.00,0.00,0.00,0.00,10.33,0.00,0.42,0.00,0.00,0.00,0.02,0.00
2025-07-23T20:51:16Z,94.66,-9999.00,0.00,0.00,0.00,0.00,0.00,0.00,10.33,0.00,0.42,0.00,0.00,0.00,0.02,0.00
2025-07-23T20:51:16Z,94.66,-9999.00,0.00,0.00,0.00,0.00,0.00,0.00,10.33,0.00,0.42,0.00,0.00,0.00,0.02,0.00
2025-07-23T20:51:16Z,94.66,-9999.00,0.00,0.00,0.00,0.00,0.00,0.00,10.33,0.00,0.42,0.00,0.00,0.00,0.02,0.00
2025-07-23T20:51:17Z,94.66,-9999.00,0.00,0.00,0.00,0.00,0.00,0.00,10.33,0.00,0.42,0.00,0.00,0.00,0.02,0.00
2025-07-23T20:51:17Z,94.66,-9999.00,0.00,0.00,0.00,0.00,0.00,0.00,10.33,0.00,0.42,0.00,0.00,0.00,0.02,0.00
2025-07-23T20:51:17Z,94.66,-9999.00,0.00,0.00,0.00,0.00,0.00,0.00,10.33,0.00,0.42,0.00,0.00,0.00,0.02,0.00
2025-07-23T20:51:17Z,94.66,-9999.00,0.00,0.00,0.00,0.00,0.00,0.00,10.33,0.00,0.42,0.00,0.00,0.00,0.02,0.00
2025-07-23T20:51:17Z,94.66,-9999.00,0.00,0.00,0.00,0.00,0.00,0.00,10.33,0.00,0.42,0.00,0.00,0.00,0.02,0.00
2025-07-23T20:51:17Z,94.66,-9999.00,0.00,0.00,0.00,0.00,0.00,0.00,10.33,0.00,0.42,0.00,0.00,0.00,0.02,0.00
2025-07-23T20:51:17Z,94.66,-9999.00,0.00,0.00,0.00,0.00,0.00,0.00,10.33,0.00,0.42,0.00,0.00,0.00,0.02,0.00
2025-07-23T20:51:17Z,94.66,-9999.00,0.00,0.00,0.00,0.00,0.00,0.00,10.33,0.00,0.42,0.00,0.00,0.00,0.02,0.00
2025-07-23T20:51:17Z,94.66,-9999.00,0.00,0.00,0.00,0.00,0.00,0.00,10.33,0.00,0.42,0.00,0.00,0.00,0.02,0.00
2025-07-23T20:51:18Z,94.66,-9999.00,0.00,0.00,0.00,0.00,0.00,0.00,10.33,0.00,0.42,0.00,0.00,0.00,0.02,0.00
2025-07-23T20:51:18Z,94.66,-9999.00,0.00,0.00,0.00,0.00,0.00,0.00,10.33,0.00,0.42,0.00,0.00,0.00,0.02,0.00
2025-07-23T20:51:18Z,94.66,-9999.00,0.00,0.00,0.00,0.00,0.00,0.00,10.33,0.00,0.42,0.00,0.00,0.00,0.02,0.00
2025-07-23T20:51:18Z,94.66,-9999.00,0.00,0.00,0.00,0.00,0.00,0.00,10.33,0.00,0.42,0.00,0.00,0.00,0.02,0.00
2025-07-23T20:51:18Z,94.66,-9999.00,0.00,0.00,0.00,0.00,0.00,0.00,10.33,0.00,0.42,0.00,0.00,0.00,0.02,0.00
2025-07-23T20:51:18Z,94.66,-9999.00,0.00,0.00,0.00,0.00,0.00,0.00,10.33,0.00,0.42,0.00,0.00,0.00,0.02,0.00
2025-07-23T20:51:18Z,94.66,-9999.00,0.00,0.00,0.00,0.00,0.00,0.00,10.33,0.00,0.42,0.00,0.00,0.00,0.02,0.00
2025-07-23T20:51:30Z,58.59,115.42,0.00,0.00,0.00,0.00,0.00,59.27,10.75,0.00,5.46,0.00,-0.22,0.00,0.01,0.00
2025-07-23T20:51:30Z,58.59,115.42,3.01,-0.00,0.00,0.00,0.00,59.27,10.75,0.00,5.49,0.00,-0.22,0.00,0.01,0.00
2025-07-23T20:51:31Z,58.59,115.42,2.89,-0.00,0.00,0.00,0.00,59.27,10.75,0.00,5.49,0.01,-0.22,-0.00,0.01,-0.00
2025-07-23T20:51:31Z,58.59,115.42,2.84,-0.00,0.00,0.00,0.00,59.27,10.75,0.00,5.49,0.00,-0.22,-0.00,0.01,-0.00
2025-07-23T20:51:31Z,58.59,115.42,2.80,-0.00,0.00,0.00,0.00,59.27,10.75,0.00,5.49,-0.00,-0.22,-0.00,0.01,-0.00
2025-07-23T20:51:31Z,58.59,115.42,2.77,-0.00,0.00,0.00,0.00,59.27,10.75,0.00,5.49,-0.00,-0.22,-0.00,0.01,-0.00
2025-07-23T20:51:31Z,58.59,115.42,2.74,-0.00,0.00,0.00,0.00,59.27,10.75,0.00,5.49,-0.00,-0.22,-0.00,0.01,-0.00
2025-07-23T20:51:32Z,58.59,115.42,2.71,-0.00,0.00,0.00,0.00,59.27,10.75,0.00,5.49,-0.01,-0.22,-0.00,0.01,-0.00
2025-07-23T20:51:32Z,58.59,115.42,2.41,-0.00,0.00,0.00,0.00,59.27,10.75,0.00,5.48,-0.00,-0.22,-0.00,0.01,-0.00
2025-07-23T20:51:32Z,58.59,115.42,2.35,-0.00,0.00,0.00,0.00,59.27,10.75,0.00,5.48,-0.00,-0.22,-0.00,0.01,-0.00
2025-07-23T20:51:32Z,58.59,115.42,2.33,-0.00,0.00,0.00,0.00,59.27,10.75,0.00,5.48,-0.00,-0.22,-0.00,0.01,-0.00
2025-07-23T20:51:33Z,58.59,115.42,2.29,-0.00,0.00,0.00,0.00,59.27,10.75,0.00,5.48,-0.00,-0.22,-0.00,0.01,-0.00
2025-07-23T20:51:33Z,58.59,115.42,2.26,-0.00,0.00,0.00,0.00,59.27,10.75,0.00,5.48,-0.00,-0.23,-0.00,0.01,-0.00
2025-07-23T20:51:33Z,58.59,115.42,2.24,-0.00,0.00,0.00,0.00,59.27,10.75,0.00,5.48,-0.00,-0.23,-0.00,0.01,-0.00
2025-07-23T20:51:33Z,58.59,115.42,2.22,-0.00,0.00,0.00,0.00,59.27,10.75,0.00,5.48,-0.00,-0.23,-0.00,0.01,-0.00
2025-07-23T20:51:33Z,58.59,115.42,2.19,-0.00,0.00,0.00,0.00,59.27,10.75,0.00,5.48,-0.00,-0.23,-0.00,0.01,-0.00
2025-07-23T20:51:33Z,58.59,115.42,2.15,-0.00,0.00,0.00,0.00,59.27,10.75,0.00,5.48,-0.00,-0.23,-0.00,0.01,-0.00
2025-07-23T20:51:33Z,58.59,115.42,2.12,-0.00,0.00,0.00,0.00,59.27,10.75,0.00,5.48,-0.00,-0.23,-0.00,0.01,-0.00
2025-07-23T20:51:33Z,58.59,115.42,2.10,-0.00,0.00,0.00,0.00,59.27,10.75,0.00,5.48,-0.00,-0.23,-0.00,0.01,-0.00
2025-07-23T20:51:33Z,58.59,115.42,2.07,-0.00,0.00,0.00,0.00,59.27,10.75,0.00,5.48,-0.00,-0.23,-0.00,0.01,-0.00
2025-07-23T20:51:33Z,58.59,115.42,2.03,-0.00,0.00,0.00,0.00,59.27,10.75,0.00,5.48,-0.00,-0.23,-0.00,0.01,-0.00
2025-07-23T20:51:34Z,58.59,115.42,2.00,-0.00,0.00,0.00,0.00,59.27,10.75,0.00,5.48,-0.00,-0.23,-0.00,0.01,-0.00
2025-07-23T20:51:34Z,58.59,115.42,1.98,-0.00,0.00,0.00,0.00,59.27,10.75,0.00,5.48,-0.00,-0.23,-0.00,0.01,-0.00
2025-07-23T20:51:34Z,58.59,115.42,1.94,-0.00,0.00,0.00,0.00,59.27,10.75,0.00,5.47,-0.00,-0.23,-0.00,0.01,-0.00
2025-07-23T20:51:34Z,58.59,115.42,1.91,-0.00,0.00,0.00,0.00,59.27,10.75,0.00,5.47,-0.00,-0.23,-0.00,0.01,-0.00
2025-07-23T20:51:34Z,58.59,115.42,1.88,-0.00,0.00,0.00,0.00,59.27,10.75,0.00,5.47,-0.00,-0.23,-0.00,0.01,-0.00
2025-07-23T20:51:34Z,58.59,115.42,1.86,-0.00,0.00,0.00,0.00,59.27,10.75,0.00,5.47,-0.00,-0.23,-0.00,0.01,-0.00
2025-07-23T20:51:34Z,58.59,115.42,1.81,-0.00,0.00,0.00,0.00,59.27,10.75,0.00,5.47,-0.00,-0.23,-0.00,0.01,-0.00
2025-07-23T20:51:34Z,58.59,115.42,1.76,-0.00,0.00,0.00,0.00,59.27,10.75,0.00,5.47,-0.00,-0.23,-0.00,0.01,-0.00
2025-07-23T20:51:35Z,58.59,115.42,1.74,-0.00,0.00,0.00,0.00,59.27,10.75,0.00,5.47,-0.00,-0.23,-0.00,0.01,-0.00
2025-07-23T20:51:35Z,58.59,115.42,1.71,-0.00,0.00,0.00,0.00,59.27,10.75,0.00,5.47,-0.00,-0.23,-0.00,0.01,-0.00
2025-07-23T20:51:35Z,58.59,115.42,1.68,-0.00,0.00,0.00,0.00,59.27,10.75,0.00,5.47,-0.00,-0.23,-0.00,0.01,-0.00
2025-07-23T20:51:35Z,58.59,115.42,1.64,-0.00,0.00,0.00,0.00,59.27,10.75,0.00,5.47,-0.00,-0.23,-0.00,0.01,-0.00
2025-07-23T20:51:35Z,58.59,115.42,1.61,-0.00,0.00,0.00,0.00,59.27,10.75,0.00,5.47,-0.00,-0.23,-0.00,0.01,-0.00
2025-07-23T20:51:35Z,58.59,115.42,1.59,-0.00,0.00,0.00,0.00,59.27,10.75,0.00,5.47,-0.00,-0.23,-0.00,0.01,-0.00
2025-07-23T20:51:35Z,58.59,115.42,1.56,-0.00,0.00,0.00,0.00,59.27,10.75,0.00,5.47,-0.00,-0.23,-0.00,0.01,-0.00
2025-07-23T20:51:35Z,58.59,115.42,1.55,-0.00,0.00,0.00,0.00,59.27,10.75,0.00,5.47,-0.00,-0.23,-0.00,0.01,-0.00
2025-07-23T20:51:35Z,58.59,115.42,1.51,-0.00,0.00,0.00,0.00,59.27,10.75,0.00,5.47,-0.00,-0.23,-0.00,0.01,-0.00
2025-07-23T20:51:35Z,58.59,115.42,1.47,-0.00,0.00,0.00,0.00,59.27,10.75,0.00,5.47,-0.00,-0.23,-0.00,0.01,-0.00
2025-07-23T20:51:36Z,58.59,115.42,1.44,-0.00,0.00,0.00,0.00,59.27,10.75,0.00,5.47,-0.00,-0.23,-0.00,0.01,-0.00
2025-07-23T20:51:36Z,58.59,115.42,1.42,-0.00,0.00,0.00,0.00,59.27,10.75,0.00,5.47,-0.00,-0.23,-0.00,0.01,-0.00
2025-07-23T20:51:37Z,58.59,115.42,1.18,-0.00,0.00,0.00,0.00,59.27,10.75,0.00,5.47,-0.00,-0.23,-0.00,0.01,-0.00
2025-07-23T20:51:37Z,58.59,115.42,1.11,-0.00,0.00,0.00,0.00,59.27,10.75,0.00,5.47,-0.00,-0.23,-0.00,0.01,-0.00
2025-07-23T20:51:37Z,58.59,115.42,1.09,-0.00,0.00,0.00,0.00,59.27,10.75,0.00,5.47,-0.00,-0.23,-0.00,0.01,-0.00
2025-07-23T20:51:37Z,58.59,115.42,1.06,-0.00,0.00,0.00,0.00,59.27,10.75,0.00,5.47,-0.00,-0.23,-0.00,0.01,-0.00
2025-07-23T20:51:37Z,58.59,115.42,1.03,-0.00,0.00,0.00,0.00,59.27,10.75,0.00,5.47,-0.00,-0.23,-0.00,0.01,-0.00
2025-07-23T20:51:37Z,58.59,115.42,1.00,-0.00,0.00,0.00,0.00,59.27,10.75,0.00,5.46,-0.00,-0.23,-0.00,0.01,-0.00
2025-07-23T20:51:37Z,58.59,115.42,0.97,-0.00,0.00,0.00,0.00,59.27,10.75,0.00,5.46,-0.00,-0.23,-0.00,0.01,-0.00
2025-07-23T20:51:37Z,58.59,115.42,0.90,0.00,0.00,0.00,0.00,59.27,10.75,0.00,5.46,-0.00,-0.23,-0.00,0.01,-0.00
2025-07-23T20:51:38Z,58.59,115.42,0.85,-0.00,0.00,0.00,0.00,59.27,10.75,0.00,5.46,-0.00,-0.23,-0.00,0.01,-0.00
2025-07-23T20:51:38Z,58.59,115.42,0.83,-0.00,0.00,0.00,0.00,59.27,10.75,0.00,5.46,-0.00,-0.23,-0.00,0.01,-0.00
2025-07-23T20:51:38Z,58.59,115.42,0.79,-0.00,0.00,0.00,0.00,59.27,10.75,0.00,5.46,-0.00,-0.23,-0.00,0.01,-0.00
2025-07-23T20:51:38Z,58.59,115.42,0.76,-0.00,0.00,0.00,0.00,59.27,10.75,0.00,5.46,-0.00,-0.23,-0.00,0.01,-0.00
2025-07-23T20:51:38Z,58.59,115.42,0.74,-0.00,0.00,0.00,0.00,59.27,10.75,0.00,5.46,-0.00,-0.23,-0.00,0.01,-0.00
2025-07-23T20:51:38Z,58.59,115.42,0.71,-0.00,0.00,0.00,0.00,59.27,10.75,0.00,5.46,-0.00,-0.23,-0.00,0.01,-0.00
2025-07-23T20:51:38Z,58.59,115.42,0.65,-0.00,0.00,0.00,0.00,59.27,10.75,0.00,5.46,-0.00,-0.23,-0.00,0.01,-0.00
2025-07-23T20:51:38Z,58.59,115.42,0.61,-0.00,0.00,0.00,0.00,59.27,10.75,0.00,5.46,-0.00,-0.23,-0.00,0.01,-0.00
2025-07-23T20:51:38Z,58.59,115.42,0.59,-0.00,0.00,0.00,0.00,59.27,10.75,0.00,5.46,-0.00,-0.23,-0.00,0.01,-0.00
2025-07-23T20:51:39Z,58.59,115.42,0.55,-0.00,0.00,0.00,0.00,59.27,10.75,0.00,5.46,-0.00,-0.23,-0.00,0.01,-0.00
2025-07-23T20:51:39Z,58.59,115.42,0.52,-0.00,0.00,0.00,0.00,59.27,10.75,0.00,5.46,-0.00,-0.23,-0.00,0.01,-0.00
2025-07-23T20:51:39Z,58.59,115.42,0.49,-0.00,0.00,0.00,0.00,59.27,10.75,0.00,5.46,-0.00,-0.23,-0.00,0.01,-0.00
2025-07-23T20:51:39Z,58.59,115.42,0.47,-0.00,0.00,0.00,0.00,59.27,10.75,0.00,5.46,-0.00,-0.23,-0.00,0.01,-0.00
2025-07-23T20:51:39Z,58.59,115.42,0.44,-0.00,0.00,0.00,0.00,59.27,10.75,0.00,5.46,-0.00,-0.23,-0.00,0.01,-0.00
2025-07-23T20:51:39Z,58.59,115.42,0.40,-0.00,0.00,0.00,0.00,59.27,10.75,0.00,5.46,-0.00,-0.23,-0.00,0.01,-0.00
2025-07-23T20:51:39Z,58.59,115.42,0.37,-0.00,0.00,0.00,0.00,59.27,10.75,0.00,5.46,-0.00,-0.23,-0.00,0.01,-0.00
2025-07-23T20:51:39Z,58.59,115.42,0.34,-0.00,0.00,0.00,0.00,59.27,10.75,0.00,5.46,-0.00,-0.23,-0.00,0.01,-0.00
2025-07-23T20:51:39Z,58.59,115.42,0.32,-0.00,0.00,0.00,0.00,59.27,10.75,0.00,5.46,-0.00,-0.23,-0.00,0.01,-0.00
2025-07-23T20:51:39Z,58.59,115.42,0.29,-0.00,0.00,0.00,0.00,59.27,10.75,0.00,5.46,-0.00,-0.23,-0.00,0.01,-0.00
2025-07-23T20:51:39Z,58.59,115.42,0.26,-0.00,0.00,0.00,0.00,59.27,10.75,0.00,5.46,-0.00,-0.23,-0.00,0.01,-0.00
2025-07-23T20:51:40Z,58.59,115.42,0.23,-0.00,0.00,0.00,0.00,59.27,10.75,0.00,5.46,-0.00,-0.23,-0.00,0.01,-0.00
2025-07-23T20:51:40Z,58.59,115.42,0.17,-0.00,0.00,0.00,0.00,59.27,10.75,0.00,5.46,-0.00,-0.23,-0.00,0.01,-0.00
2025-07-23T20:51:40Z,58.59,115.42,0.14,0.00,0.00,0.00,0.00,59.27,10.75,0.00,5.46,-0.00,-0.23,-0.00,0.01,-0.00
2025-07-23T20:51:40Z,58.59,115.42,0.12,0.00,0.00,0.00,0.00,59.27,10.75,0.00,5.46,-0.00,-0.23,-0.00,0.01,-0.00
2025-07-23T20:51:40Z,58.59,115.42,0.08,-0.00,0.00,0.00,0.00,59.27,10.75,0.00,5.46,-0.00,-0.23,-0.00,0.01,-0.00
2025-07-23T20:51:40Z,58.59,115.42,0.06,-0.00,0.00,0.00,0.00,59.27,10.75,0.00,5.46,-0.00,-0.23,-0.00,0.01,-0.00
2025-07-23T20:51:40Z,58.59,115.42,0.02,-0.00,0.00,0.00,0.00,59.27,10.75,0.00,5.46,-0.00,-0.23,-0.00,0.01,-0.00
2025-07-23T20:51:40Z,58.59,115.42,0.00,-0.00,0.00,0.00,0.00,59.27,10.75,0.00,5.46,-0.00,-0.23,-0.00,0.01,-0.00
2025-07-23T20:51:41Z,58.59,115.42,0.00,-0.00,0.00,0.00,0.00,59.27,10.75,0.00,5.46,-0.00,-0.23,-0.00,0.01,-0.00
2025-07-23T20:51:41Z,58.59,115.42,0.00,-0.00,0.00,0.00,0.00,59.27,10.75,0.00,5.46,-0.00,-0.23,-0.00,0.01,-0.00
2025-07-23T20:51:41Z,58.59,115.42,0.00,-0.00,0.00,0.00,0.00,59.27,10.75,0.00,5.46,-0.00,-0.23,-0.00,0.01,-0.00
2025-07-23T20:51:41Z,58.59,115.42,0.00,-0.00,0.00,0.00,0.00,59.27,10.75,0.00,5.46,-0.00,-0.23,-0.00,0.01,-0.00
2025-07-23T20:51:41Z,58.59,115.42,0.00,-0.00,0.00,0.00,0.00,59.27,10.75,0.00,5.46,-0.00,-0.23,-0.00,0.01,-0.00
2025-07-23T20:51:41Z,58.59,115.42,0.00,-0.00,0.00,0.00,0.00,59.27,10.75,0.00,5.46,-0.00,-0.23,-0.00,0.01,-0.00
2025-07-23T20:51:41Z,58.59,115.42,0.00,-0.00,0.00,0.00,0.00,59.27,10.75,0.00,5.46,-0.00,-0.23,-0.00,0.01,-0.00
2025-07-23T20:51:41Z,58.59,115.42,0.00,0.00,0.00,0.00,0.00,59.27,10.75,0.00,5.46,-0.00,-0.23,-0.00,0.01,-0.00
2025-07-23T20:51:41Z,58.59,115.42,0.00,0.00,0.00,0.00,0.00,59.27,10.75,0.00,5.46,-0.00,-0.23,-0.00,0.01,-0.00
2025-07-23T20:51:41Z,58.59,115.42,0.00,0.00,0.00,0.00,0.00,59.27,10.75,0.00,5.46,-0.00,-0.23,-0.00,0.01,-0.00
2025-07-23T20:51:41Z,58.59,115.42,0.00,0.00,0.00,0.00,0.00,59.27,10.75,0.00,5.46,-0.00,-0.23,-0.00,0.01,-0.00
2025-07-23T20:51:42Z,58.59,115.42,0.00,0.00,0.00,0.00,0.00,59.27,10.75,0.00,5.46,-0.00,-0.23,-0.00,0.01,-0.00
2025-07-23T20:51:42Z,58.59,115.42,0.00,0.00,0.00,0.00,0.00,59.27,10.75,0.00,5.46,-0.00,-0.23,-0.00,0.01,-0.00
2025-07-23T20:51:42Z,58.59,115.42,0.00,0.00,0.00,0.00,0.00,59.27,10.75,0.00,5.46,-0.00,-0.23,-0.00,0.01,-0.00
2025-07-23T20:51:42Z,58.59,115.42,0.00,0.00,0.00,0.00,0.00,59.27,10.75,0.00,5.46,-0.00,-0.23,-0.00,0.01,-0.00
2025-07-23T20:51:42Z,58.59,115.42,0.00,0.00,0.00,0.00,0.00,59.27,10.75,0.00,5.46,-0.00,-0.23,-0.00,0.01,-0.00
2025-07-23T20:51:42Z,58.59,115.42,0.00,0.00,0.00,0.00,0.00,59.27,10.75,0.00,5.46,-0.00,-0.23,-0.00,0.01,-0.00
2025-07-23T20:51:42Z,58.59,115.42,0.00,0.00,0.00,0.00,0.00,59.27,10.75,0.00,5.46,-0.00,-0.23,-0.00,0.01,-0.00
2025-07-23T20:51:42Z,58.59,115.42,0.00,0.00,0.00,0.00,0.00,59.27,10.75,0.00,5.46,-0.00,-0.23,-0.00,0.01,-0.00
2025-07-23T20:51:42Z,58.59,115.42,0.00,0.00,0.00,0.00,0.00,59.27,10.75,0.00,5.46,-0.00,-0.23,-0.00,0.01,-0.00
2025-07-23T20:51:43Z,58.59,115.42,0.00,0.00,0.00,0.00,0.00,59.27,10.75,0.00,5.46,0.00,-0.23,-0.00,0.01,-0.00
2025-07-23T20:51:43Z,58.59,115.42,0.00,0.00,0.00,0.00,0.00,59.27,10.75,0.00,5.46,0.00,-0.23,-0.00,0.01,-0.00
2025-07-23T20:51:43Z,58.59,115.42,0.00,0.00,0.00,0.00,0.00,59.27,10.75,0.00,5.46,-0.00,-0.23,-0.00,0.01,-0.00
2025-07-23T20:51:43Z,58.59,115.42,0.00,0.00,0.00,0.00,0.00,59.27,10.75,0.00,5.46,0.00,-0.23,-0.00,0.01,-0.00
2025-07-23T20:51:43Z,58.59,115.42,0.00,0.00,0.00,0.00,0.00,59.27,10.75,0.00,5.46,-0.00,-0.23,-0.00,0.01,-0.00
2025-07-23T20:51:43Z,58.59,115.42,0.00,0.00,0.00,0.00,0.00,59.27,10.75,0.00,5.46,0.00,-0.23,-0.00,0.01,-0.00
2025-07-23T20:51:43Z,58.59,115.42,0.00,0.00,0.00,0.00,0.00,59.27,10.75,0.00,5.46,-0.00,-0.23,-0.00,0.01,-0.00
2025-07-23T20:51:43Z,58.59,115.42,0.00,0.00,0.00,0.00,0.00,59.27,10.75,0.00,5.46,0.00,-0.23,-0.00,0.01,-0.00
2025-07-23T20:51:43Z,58.59,115.42,0.00,0.00,0.00,0.00,0.00,59.27,10.75,0.00,5.46,-0.00,-0.23,0.00,0.01,0.00
2025-07-23T20:51:43Z,58.59,115.42,0.00,0.00,0.00,0.00,0.00,59.27,10.75,0.00,5.46,0.00,-0.23,0.00,0.01,-0.00
2025-07-23T20:51:44Z,58.59,115.42,0.00,0.00,0.00,0.00,0.00,59.27,10.75,0.00,5.46,-0.00,-0.23,0.00,0.01,0.00
2025-07-23T20:51:44Z,58.59,115.42,0.00,0.00,0.00,0.00,0.00,59.27,10.75,0.00,5.46,0.00,-0.23,0.00,0.01,0.00
2025-07-23T20:51:44Z,58.59,115.42,0.00,0.00,0.00,0.00,0.00,59.27,10.75,0.00,5.46,-0.00,-0.23,0.00,0.01,0.00
2025-07-23T20:51:44Z,58.59,115.42,0.00,0.00,0.00,0.00,0.00,59.27,10.75,0.00,5.46,0.00,-0.23,-0.00,0.01,-0.00
2025-07-23T20:51:44Z,58.59,115.42,0.00,0.00,0.00,0.00,0.00,59.27,10.75,0.00,5.46,0.00,-0.23,-0.00,0.01,0.00
2025-07-23T20:51:44Z,58.59,115.42,0.00,0.00,0.00,0.00,0.00,59.27,10.75,0.00,5.46,0.00,-0.23,-0.00,0.01,-0.00
2025-07-23T20:51:44Z,58.59,115.42,0.00,0.00,0.00,0.00,0.00,59.27,10.75,0.00,5.46,-0.00,-0.23,-0.00,0.01,0.00
2025-07-23T20:51:44Z,58.59,115.42,0.00,0.00,0.00,0.00,0.00,59.27,10.75,0.00,5.46,0.00,-0.23,-0.00,0.01,-0.00
2025-07-23T20:51:44Z,58.59,115.42,0.00,0.00,0.00,0.00,0.00,59.27,10.75,0.00,5.46,-0.00,-0.23,0.00,0.01,0.00
2025-07-23T20:51:44Z,58.59,115.42,0.00,0.00,0.00,0.00,0.00,59.27,10.75,0.00,5.46,0.00,-0.23,0.00,0.01,0.00
2025-07-23T20:51:44Z,58.59,115.42,0.00,0.00,0.00,0.00,0.00,59.27,10.75,0.00,5.46,-0.00,-0.23,0.00,0.01,0.00
2025-07-23T20:51:45Z,58.59,115.42,0.00,0.00,0.00,0.00,0.00,59.27,10.75,0.00,5.46,-0.00,-0.23,0.00,0.01,0.00
2025-07-23T20:51:45Z,58.59,115.42,0.00,0.00,0.00,0.00,0.00,59.27,10.75,0.00,5.46,-0.00,-0.23,0.00,0.01,0.00
2025-07-23T20:51:45Z,58.59,115.42,0.00,0.00,0.00,0.00,0.00,59.27,10.75,0.00,5.46,-0.00,-0.23,0.00,0.01,0.00
2025-07-23T20:51:45Z,58.59,115.42,0.00,0.00,0.00,0.00,0.00,59.27,10.75,0.00,5.46,0.00,-0.23,-0.00,0.01,0.00
2025-07-23T20:51:45Z,58.59,115.42,0.00,0.00,0.00,0.00,0.00,59.27,10.75,0.00,5.46,-0.00,-0.23,0.00,0.01,0.00
2025-07-23T20:51:45Z,58.59,115.42,0.00,0.00,0.00,0.00,0.00,59.27,10.75,0.00,5.46,0.00,-0.23,0.00,0.01,0.00
2025-07-23T20:51:45Z,58.59,115.42,0.00,0.00,0.00,0.00,0.00,59.27,10.75,0.00,5.46,-0.00,-0.23,0.00,0.01,0.00
2025-07-23T20:51:45Z,58.59,115.42,0.00,0.00,0.00,0.00,0.00,59.27,10.75,0.00,5.46,0.00,-0.23,0.00,0.01,0.00
2025-07-23T20:51:45Z,58.59,115.42,0.00,0.00,0.00,0.00,0.00,59.27,10.75,0.00,5.46,-0.00,-0.23,0.00,0.01,0.00
2025-07-23T20:51:46Z,58.59,115.42,0.00,0.00,0.00,0.00,0.00,59.27,10.75,0.00,5.46,-0.00,-0.23,0.00,0.01,0.00
2025-07-23T20:51:46Z,58.59,115.42,0.00,0.00,0.00,0.20,0.00,59.27,10.76,0.00,5.46,-0.00,-0.23,0.00,0.01,0.00
2025-07-23T20:51:46Z,58.59,115.42,0.00,-0.00,0.00,0.20,0.00,59.27,10.76,0.00,5.46,0.00,-0.23,-0.00,0.01,-0.00
2025-07-23T20:51:46Z,58.59,115.42,0.01,-0.03,12.89,0.20,0.82,59.27,10.76,0.07,5.46,0.00,-0.24,-0.16,0.01,-0.01
2025-07-23T20:51:46Z,58.59,115.42,0.00,-0.00,82.78,0.20,5.28,59.27,10.76,0.43,5.46,-0.00,-0.25,-0.03,0.01,-0.00
2025-07-23T20:51:46Z,58.59,115.42,0.00,-0.00,141.79,0.20,9.04,59.27,10.76,0.70,5.46,-0.01,-0.25,-0.01,0.01,-0.00
2025-07-23T20:51:46Z,58.59,115.42,0.00,0.00,171.78,0.20,10.95,59.27,10.76,0.83,5.46,-0.01,-0.25,-0.01,0.01,-0.00
2025-07-23T20:51:46Z,58.59,115.42,0.00,0.00,200.19,0.20,12.76,59.27,10.76,0.94,5.46,-0.01,-0.26,-0.00,0.01,-0.00
2025-07-23T20:51:46Z,58.59,115.42,0.00,0.00,222.64,0.20,14.19,59.26,10.76,1.01,5.46,-0.01,-0.26,0.00,0.01,0.00
2025-07-23T20:51:46Z,58.59,115.42,0.00,0.00,250.20,0.20,15.95,59.26,10.76,1.10,5.46,-0.02,-0.25,0.00,0.01,0.00
2025-07-23T20:51:47Z,58.59,115.42,0.00,0.01,274.03,0.20,17.47,59.26,10.76,1.16,5.45,-0.02,-0.25,0.00,0.01,0.00
2025-07-23T20:51:47Z,58.59,115.42,0.00,0.01,299.94,0.20,19.12,59.26,10.76,1.22,5.45,-0.02,-0.25,0.01,0.01,0.00
2025-07-23T20:51:47Z,58.59,115.41,0.00,0.01,320.57,0.20,20.44,59.26,10.76,1.26,5.45,-0.02,-0.25,0.01,0.01,0.00
2025-07-23T20:51:47Z,58.59,115.41,0.00,0.01,339.82,0.20,21.67,59.26,10.76,1.29,5.45,-0.02,-0.25,0.01,0.01,0.00
2025-07-23T20:51:47Z,58.59,115.41,0.00,0.01,353.38,0.20,22.53,59.26,10.76,1.30,5.45,-0.02,-0.25,0.01,0.01,0.00
2025-07-23T20:51:47Z,58.59,115.41,0.00,0.01,370.33,0.20,23.61,59.26,10.76,1.32,5.44,-0.02,-0.25,0.01,0.01,0.00
2025-07-23T20:51:47Z,58.59,115.41,0.00,0.01,386.07,0.20,24.61,59.26,10.76,1.33,5.44,-0.02,-0.25,0.01,0.01,0.00
2025-07-23T20:51:47Z,58.59,115.41,0.00,0.01,400.65,0.20,25.54,59.26,10.76,1.33,5.44,-0.02,-0.25,0.01,0.01,0.00
2025-07-23T20:51:47Z,58.59,115.41,0.00,0.01,413.06,0.20,26.33,59.26,10.76,1.33,5.44,-0.02,-0.25,0.01,0.01,0.00
2025-07-23T20:51:47Z,58.59,115.41,0.00,0.01,426.61,0.20,27.20,59.26,10.76,1.33,5.43,-0.02,-0.25,0.01,0.01,0.00
2025-07-23T20:51:48Z,58.59,115.41,0.00,0.01,438.12,0.20,27.93,59.26,10.76,1.32,5.43,-0.02,-0.25,0.01,0.01,0.00
2025-07-23T20:51:48Z,58.59,115.41,0.00,0.01,448.72,0.20,28.61,59.26,10.76,1.32,5.43,-0.02,-0.25,0.00,0.01,0.00
2025-07-23T20:51:48Z,58.59,115.41,0.00,0.01,458.48,0.20,29.23,59.26,10.76,1.30,5.43,-0.02,-0.25,0.00,0.01,0.00
2025-07-23T20:51:48Z,58.59,115.41,0.00,0.01,467.46,0.20,29.80,59.26,10.76,1.29,5.43,-0.02,-0.25,0.00,0.01,0.00
2025-07-23T20:51:48Z,58.59,115.41,0.00,0.01,475.71,0.20,30.33,59.26,10.76,1.28,5.42,-0.02,-0.25,0.00,0.01,0.00
2025-07-23T20:51:48Z,58.59,115.41,0.00,-0.01,511.77,0.20,32.63,59.26,10.76,1.34,5.42,-0.02,-0.25,-0.10,0.01,-0.01
2025-07-23T20:51:48Z,58.59,115.41,0.00,-0.00,583.44,0.20,37.20,59.26,10.76,1.48,5.42,-0.04,-0.26,-0.11,0.01,-0.01
2025-07-23T20:51:48Z,58.59,115.41,0.00,0.01,653.80,0.20,41.68,59.26,10.76,1.60,5.41,-0.08,-0.27,-0.07,0.01,-0.01
2025-07-23T20:51:48Z,58.59,115.41,0.00,0.02,711.55,0.20,45.37,59.26,10.76,1.67,5.40,-0.10,-0.28,-0.04,0.01,-0.00
2025-07-23T20:51:48Z,58.59,115.41,0.00,0.03,762.32,0.20,48.60,59.26,10.76,1.72,5.39,-0.12,-0.28,-0.02,0.01,-0.00
2025-07-23T20:51:49Z,58.59,115.41,0.00,0.03,806.23,0.20,51.40,59.26,10.76,1.74,5.38,-0.12,-0.28,-0.01,0.01,0.00
2025-07-23T20:51:49Z,58.59,115.41,0.00,0.03,843.61,0.20,53.79,59.26,10.76,1.75,5.37,-0.13,-0.28,0.00,0.01,0.00
2025-07-23T20:51:49Z,58.59,115.41,0.00,0.03,874.87,0.20,55.78,59.26,10.76,1.74,5.36,-0.12,-0.28,0.01,0.01,0.00
2025-07-23T20:51:49Z,58.59,115.41,0.00,0.03,898.55,0.20,57.29,59.26,10.76,1.72,5.34,-0.12,-0.28,0.02,0.01,0.00
2025-07-23T20:51:49Z,58.59,115.41,0.00,0.03,919.44,0.20,58.62,59.27,10.76,1.69,5.33,-0.11,-0.28,0.02,0.01,0.00
2025-07-23T20:51:49Z,58.59,115.41,0.00,0.03,935.67,0.20,59.65,59.27,10.76,1.65,5.32,-0.09,-0.27,0.03,0.01,-0.01
2025-07-23T20:51:49Z,58.59,115.41,0.01,0.03,950.18,0.20,60.58,59.27,10.76,1.60,5.31,-0.06,-0.27,0.02,0.01,0.00
2025-07-23T20:51:49Z,58.59,115.41,0.01,0.03,957.27,0.20,61.03,59.27,10.76,1.56,5.31,-0.05,-0.27,0.02,0.01,0.00
2025-07-23T20:51:49Z,58.59,115.41,0.02,0.03,962.30,0.20,61.35,59.27,10.76,1.51,5.30,-0.03,-0.27,0.02,0.01,0.00
2025-07-23T20:51:50Z,58.59,115.41,0.02,0.04,964.19,0.20,61.47,59.27,10.76,1.46,5.30,-0.02,-0.27,0.02,0.01,0.00
2025-07-23T20:51:50Z,58.59,115.41,0.03,0.05,963.82,0.20,61.45,59.28,10.76,1.42,5.30,-0.02,-0.26,0.02,0.01,0.00
2025-07-23T20:51:50Z,58.59,115.41,0.03,0.05,961.57,0.20,61.30,59.28,10.76,1.38,5.30,-0.01,-0.26,0.02,0.01,0.00
2025-07-23T20:51:50Z,58.59,115.42,0.04,0.06,957.74,0.20,61.06,59.28,10.76,1.34,5.30,-0.01,-0.26,0.02,0.01,0.00
2025-07-23T20:51:50Z,58.59,115.42,0.04,0.06,953.57,0.20,60.79,59.28,10.76,1.30,5.29,-0.01,-0.26,0.01,0.01,0.00
2025-07-23T20:51:50Z,58.59,115.42,0.04,0.06,947.07,0.20,60.38,59.28,10.76,1.26,5.29,-0.00,-0.26,0.01,0.01,-0.00
2025-07-23T20:51:50Z,58.59,115.42,0.05,0.07,939.62,0.20,59.90,59.29,10.76,1.23,5.29,-0.00,-0.26,0.01,0.01,0.00
2025-07-23T20:51:50Z,58.59,115.42,0.05,0.07,932.13,0.20,59.43,59.29,10.76,1.20,5.29,-0.00,-0.25,0.01,0.01,0.00
2025-07-23T20:51:50Z,58.59,115.42,0.05,0.07,924.22,0.20,58.92,59.29,10.76,1.17,5.29,-0.00,-0.25,0.01,0.01,0.00
2025-07-23T20:51:50Z,58.59,115.42,0.05,0.07,918.79,0.20,58.58,59.29,10.76,1.15,5.29,0.00,-0.25,0.01,0.01,0.00
2025-07-23T20:51:50Z,58.59,115.42,0.05,0.06,909.83,0.20,58.00,59.30,10.76,1.13,5.29,0.00,-0.25,0.01,0.01,-0.00
2025-07-23T20:51:51Z,58.59,115.42,0.04,0.06,901.50,0.20,57.47,59.30,10.76,1.11,5.29,0.00,-0.25,0.01,0.01,-0.00
2025-07-23T20:51:51Z,58.59,115.42,0.04,0.05,892.55,0.20,56.90,59.30,10.76,1.09,5.29,0.00,-0.25,0.00,0.01,0.00
2025-07-23T20:51:51Z,58.59,115.42,0.03,0.04,883.78,0.20,56.34,59.31,10.76,1.07,5.29,0.00,-0.25,0.01,0.01,-0.00
2025-07-23T20:51:51Z,58.59,115.42,0.03,0.04,877.84,0.20,55.96,59.31,10.76,1.06,5.29,0.00,-0.25,0.00,0.01,0.00
2025-07-23T20:51:51Z,58.59,115.42,0.00,0.00,855.22,0.20,54.52,59.32,10.76,1.02,5.29,0.00,-0.25,0.00,0.01,0.00
2025-07-23T20:51:51Z,58.59,115.42,0.00,-0.00,852.42,0.20,54.34,59.32,10.76,1.02,5.29,0.01,-0.25,0.00,0.01,0.00
2025-07-23T20:51:52Z,58.59,115.42,0.00,-0.01,837.51,0.20,53.39,59.33,10.76,1.00,5.31,0.05,-0.25,0.00,0.01,-0.00
2025-07-23T20:51:52Z,58.59,115.42,0.00,-0.01,830.30,0.20,52.93,59.33,10.76,1.00,5.31,0.04,-0.25,0.00,0.01,-0.00
2025-07-23T20:51:52Z,58.59,115.42,0.00,-0.01,825.37,0.20,52.62,59.33,10.76,0.99,5.32,0.04,-0.25,-0.00,0.01,-0.00
2025-07-23T20:51:52Z,58.59,115.42,0.00,-0.00,813.89,0.20,51.88,59.34,10.76,0.99,5.32,0.02,-0.25,-0.00,0.01,-0.00
2025-07-23T20:51:52Z,58.59,115.42,0.00,-0.00,810.17,0.20,51.65,59.35,10.76,0.98,5.33,0.02,-0.25,-0.00,0.01,-0.00
2025-07-23T20:51:52Z,58.59,115.42,0.00,-0.00,801.82,0.20,51.11,59.36,10.76,0.98,5.33,0.01,-0.25,-0.00,0.01,-0.00
2025-07-23T20:51:53Z,58.59,115.42,0.00,-0.00,799.60,0.20,50.97,59.36,10.76,0.98,5.33,0.01,-0.25,-0.00,0.01,-0.00
2025-07-23T20:51:53Z,58.59,115.42,0.00,-0.00,797.72,0.20,50.85,59.37,10.76,0.99,5.33,0.01,-0.25,-0.00,0.01,-0.00
2025-07-23T20:51:53Z,58.59,115.42,0.00,-0.00,796.25,0.20,50.76,59.37,10.76,0.99,5.33,0.01,-0.25,-0.00,0.01,-0.00
2025-07-23T20:51:53Z,58.59,115.42,0.00,-0.00,795.30,0.20,50.70,59.37,10.76,0.99,5.34,0.01,-0.25,-0.00,0.01,-0.00
2025-07-23T20:51:53Z,58.59,115.42,0.00,-0.00,794.24,0.20,50.63,59.38,10.76,0.99,5.34,0.01,-0.25,-0.00,0.01,-0.00
2025-07-23T20:51:53Z,58.59,115.42,0.00,-0.00,793.32,0.20,50.57,59.38,10.76,0.99,5.34,0.01,-0.25,-0.00,0.01,-0.00
2025-07-23T20:51:53Z,58.59,115.42,0.00,-0.00,792.66,0.20,50.53,59.39,10.76,0.99,5.34,0.00,-0.25,-0.00,0.01,-0.00
2025-07-23T20:51:53Z,58.59,115.42,0.00,-0.00,792.10,0.20,50.49,59.39,10.76,0.99,5.34,0.00,-0.25,-0.00,0.01,-0.00
2025-07-23T20:51:53Z,58.59,115.42,0.00,-0.00,791.87,0.20,50.47,59.40,10.76,0.99,5.34,0.00,-0.25,-0.00,0.01,-0.00
2025-07-23T20:51:53Z,58.59,115.42,0.00,-0.00,791.58,0.20,50.46,59.40,10.76,1.00,5.34,0.00,-0.25,-0.00,0.01,-0.00
2025-07-23T20:51:53Z,58.59,115.42,0.00,-0.00,791.50,0.20,50.45,59.40,10.76,1.00,5.34,0.00,-0.25,-0.00,0.01,-0.00
2025-07-23T20:51:54Z,58.59,115.42,0.00,-0.00,791.49,0.20,50.45,59.41,10.76,1.00,5.34,0.00,-0.25,-0.00,0.01,-0.00
2025-07-23T20:51:54Z,58.59,115.42,0.00,-0.00,791.57,0.20,50.45,59.41,10.76,1.00,5.34,0.00,-0.25,-0.00,0.01,-0.00
2025-07-23T20:51:54Z,58.59,115.42,0.00,-0.00,791.68,0.20,50.46,59.42,10.76,1.00,5.34,0.00,-0.25,-0.00,0.01,-0.00
2025-07-23T20:51:54Z,58.59,115.42,0.00,-0.00,791.91,0.20,50.47,59.42,10.76,1.00,5.34,0.00,-0.25,-0.00,0.01,-0.00
2025-07-23T20:51:54Z,58.59,115.42,0.00,-0.00,792.21,0.20,50.49,59.43,10.76,1.01,5.34,-0.00,-0.25,-0.00,0.01,-0.00
2025-07-23T20:51:54Z,58.59,115.42,0.00,-0.00,792.40,0.20,50.51,59.43,10.76,1.01,5.34,-0.00,-0.25,-0.00,0.01,-0.00
2025-07-23T20:51:54Z,58.59,115.42,0.00,0.00,792.75,0.20,50.53,59.44,10.76,1.01,5.34,-0.00,-0.25,-0.00,0.01,-0.00
2025-07-23T20:51:54Z,58.59,115.42,0.00,0.00,793.14,0.20,50.55,59.44,10.76,1.01,5.34,-0.00,-0.25,-0.00,0.01,-0.00
2025-07-23T20:51:54Z,58.59,115.42,0.00,0.00,793.49,0.20,50.57,59.45,10.76,1.01,5.34,-0.00,-0.25,-0.00,0.01,-0.00
2025-07-23T20:51:54Z,58.59,115.42,0.00,0.00,793.76,0.20,50.59,59.45,10.76,1.01,5.34,-0.00,-0.25,-0.00,0.01,-0.00
2025-07-23T20:51:55Z,58.59,115.42,0.00,0.00,794.15,0.20,50.61,59.46,10.76,1.01,5.34,-0.00,-0.25,-0.00,0.01,-0.00
2025-07-23T20:51:55Z,58.59,115.42,0.00,0.00,794.54,0.20,50.64,59.46,10.76,1.01,5.34,-0.00,-0.25,-0.00,0.01,-0.00
2025-07-23T20:51:55Z,58.59,115.42,0.00,0.00,794.92,0.20,50.66,59.47,10.76,1.01,5.34,-0.00,-0.25,-0.00,0.01,-0.00
2025-07-23T20:51:55Z,58.59,115.42,0.00,0.00,795.18,0.20,50.68,59.47,10.76,1.01,5.34,-0.00,-0.25,-0.00,0.01,-0.00
2025-07-23T20:51:55Z,58.59,115.42,0.00,0.00,795.56,0.20,50.70,59.48,10.76,1.01,5.34,-0.00,-0.25,-0.00,0.01,-0.00
2025-07-23T20:51:55Z,58.59,115.42,0.00,0.00,795.90,0.20,50.72,59.48,10.76,1.01,5.34,-0.00,-0.25,-0.00,0.01,-0.00
2025-07-23T20:51:55Z,58.59,115.42,0.00,0.00,796.20,0.20,50.74,59.49,10.76,1.01,5.34,-0.00,-0.25,-0.00,0.01,-0.00
2025-07-23T20:51:55Z,58.59,115.42,0.00,0.00,796.50,0.20,50.76,59.50,10.76,1.01,5.34,-0.00,-0.25,-0.00,0.01,0.00
2025-07-23T20:51:55Z,58.59,115.42,0.00,0.00,796.69,0.20,50.77,59.50,10.76,1.01,5.34,-0.00,-0.25,0.00,0.01,0.00
2025-07-23T20:51:56Z,58.59,115.42,0.00,0.00,796.96,0.20,50.79,59.51,10.76,1.02,5.34,-0.00,-0.25,0.00,0.01,0.00
2025-07-23T20:51:56Z,58.59,115.42,0.00,0.00,797.20,0.20,50.80,59.51,10.76,1.02,5.34,-0.00,-0.25,-0.00,0.01,0.00
2025-07-23T20:51:56Z,58.59,115.42,0.00,0.00,797.42,0.20,50.82,59.52,10.76,1.02,5.34,-0.00,-0.25,-0.00,0.01,0.00
2025-07-23T20:51:56Z,58.59,115.42,0.00,0.00,797.57,0.20,50.83,59.52,10.76,1.02,5.34,-0.00,-0.25,-0.00,0.01,0.00
2025-07-23T20:51:56Z,58.59,115.42,0.00,0.00,797.76,0.20,50.84,59.53,10.76,1.02,5.34,-0.00,-0.25,0.00,0.01,0.00
2025-07-23T20:51:56Z,58.59,115.42,0.00,0.00,797.87,0.20,50.84,59.54,10.76,1.02,5.34,-0.00,-0.25,0.00,0.01,0.00
2025-07-23T20:51:56Z,58.59,115.42,0.00,0.00,798.03,0.20,50.85,59.54,10.76,1.02,5.34,-0.00,-0.25,0.00,0.01,0.00
2025-07-23T20:51:56Z,58.59,115.42,0.00,0.00,798.15,0.20,50.86,59.55,10.76,1.02,5.34,-0.00,-0.25,0.00,0.01,0.00
2025-07-23T20:51:56Z,58.59,115.42,0.00,0.00,798.22,0.20,50.87,59.55,10.76,1.02,5.34,-0.00,-0.25,0.00,0.01,0.00
2025-07-23T20:51:56Z,58.59,115.42,0.00,0.00,798.32,0.20,50.87,59.56,10.76,1.02,5.34,-0.00,-0.25,0.00,0.01,0.00
2025-07-23T20:51:57Z,58.59,115.42,0.00,0.00,798.40,0.20,50.88,59.57,10.76,1.02,5.34,-0.00,-0.25,0.00,0.01,0.00
2025-07-23T20:51:57Z,58.59,115.42,0.00,0.00,798.47,0.20,50.88,59.57,10.76,1.02,5.34,-0.00,-0.25,0.00,0.01,0.00
2025-07-23T20:51:57Z,58.59,115.42,0.00,0.00,798.52,0.20,50.88,59.58,10.76,1.02,5.34,-0.00,-0.25,0.00,0.01,0.00
2025-07-23T20:51:57Z,58.59,115.42,0.00,0.00,798.56,0.20,50.88,59.59,10.76,1.02,5.34,-0.00,-0.25,0.00,0.01,0.00
2025-07-23T20:51:57Z,58.59,115.42,0.00,0.00,798.60,0.20,50.89,59.59,10.76,1.02,5.34,-0.00,-0.25,0.00,0.01,0.00
2025-07-23T20:51:57Z,58.59,115.42,0.00,0.00,798.61,0.20,50.89,59.60,10.76,1.02,5.34,-0.00,-0.25,0.00,0.01,0.00
2025-07-23T20:51:57Z,58.59,115.42,0.00,0.00,798.63,0.20,50.89,59.60,10.76,1.02,5.34,-0.00,-0.25,0.00,0.01,0.00
2025-07-23T20:51:57Z,58.59,115.42,0.00,0.00,798.64,0.20,50.89,59.61,10.75,1.02,5.34,-0.00,-0.25,0.00,0.01,0.00
2025-07-23T20:51:57Z,58.59,115.42,0.00,0.00,798.65,0.20,50.89,59.62,10.75,1.01,5.34,-0.00,-0.25,0.00,0.01,0.00
2025-07-23T20:51:57Z,58.59,115.42,0.00,0.00,798.65,0.20,50.89,59.63,10.75,1.01,5.34,-0.00,-0.25,0.00,0.01,0.00
2025-07-23T20:51:58Z,58.59,115.42,0.00,0.00,798.65,0.20,50.88,59.63,10.75,1.01,5.34,-0.00,-0.25,0.00,0.01,0.00
2025-07-23T20:51:58Z,58.59,115.42,0.00,0.00,798.64,0.20,50.88,59.64,10.75,1.01,5.34,-0.00,-0.25,0.00,0.01,0.00
2025-07-23T20:51:58Z,58.59,115.42,0.00,0.00,798.63,0.20,50.88,59.65,10.75,1.01,5.34,-0.00,-0.25,0.00,0.01,0.00
2025-07-23T20:51:58Z,58.59,115.42,0.00,0.00,798.61,0.20,50.88,59.65,10.75,1.01,5.34,0.00,-0.25,0.00,0.01,0.00
2025-07-23T20:51:58Z,58.59,115.42,0.00,0.00,798.60,0.20,50.88,59.66,10.75,1.01,5.34,0.00,-0.25,0.00,0.01,0.00
2025-07-23T20:51:58Z,58.59,115.42,0.00,0.00,798.59,0.20,50.88,59.67,10.75,1.01,5.34,0.00,-0.25,0.00,0.01,0.00
2025-07-23T20:51:58Z,58.59,115.42,0.00,0.00,798.57,0.20,50.88,59.68,10.75,1.01,5.34,0.00,-0.25,0.00,0.01,0.00
2025-07-23T20:51:58Z,58.59,115.42,0.00,0.00,798.55,0.20,50.87,59.68,10.75,1.01,5.34,0.00,-0.25,0.00,0.01,0.00
2025-07-23T20:51:58Z,58.59,115.42,0.00,0.00,798.53,0.20,50.87,59.69,10.75,1.01,5.34,0.00,-0.25,0.00,0.01,0.00
2025-07-23T20:51:58Z,58.59,115.42,0.00,0.00,798.51,0.20,50.87,59.70,10.75,1.01,5.34,0.00,-0.25,0.00,0.01,0.00
2025-07-23T20:51:58Z,58.59,115.42,0.00,0.00,798.50,0.20,50.87,59.70,10.75,1.01,5.34,0.00,-0.25,0.00,0.01,0.00
2025-07-23T20:51:59Z,58.59,115.42,0.00,0.00,798.48,0.20,50.87,59.71,10.75,1.01,5.34,0.00,-0.25,0.00,0.01,0.00
2025-07-23T20:51:59Z,58.59,115.42,0.00,-0.00,798.47,0.24,50.87,59.72,10.75,1.02,5.34,0.00,-0.25,-0.00,0.01,-0.00
2025-07-23T20:51:59Z,58.59,115.42,0.00,-0.00,798.68,0.28,50.88,59.73,10.75,1.03,5.34,-0.00,-0.25,-0.00,0.01,-0.00
2025-07-23T20:51:59Z,58.59,115.42,0.00,-0.00,800.14,0.32,50.97,59.74,10.75,1.05,5.34,-0.00,-0.25,-0.00,0.01,-0.00
2025-07-23T20:51:59Z,58.59,115.42,0.00,-0.00,802.90,0.32,51.15,59.74,10.75,1.09,5.34,-0.00,-0.25,-0.01,0.01,-0.00
2025-07-23T20:51:59Z,58.59,115.42,0.00,0.00,807.83,0.34,51.46,59.75,10.75,1.13,5.34,-0.00,-0.25,-0.01,0.01,-0.00
2025-07-23T20:51:59Z,58.59,115.42,0.00,0.00,811.48,0.38,51.69,59.76,10.75,1.15,5.34,-0.01,-0.25,-0.01,0.01,-0.00
2025-07-23T20:51:59Z,58.59,115.42,0.00,0.00,819.16,0.44,52.18,59.77,10.75,1.21,5.33,-0.01,-0.25,-0.01,0.01,-0.00
2025-07-23T20:51:59Z,58.59,115.42,0.00,0.00,830.77,0.50,52.92,59.78,10.75,1.31,5.33,-0.02,-0.25,-0.02,0.01,-0.00
2025-07-23T20:52:00Z,58.59,115.42,0.00,0.00,845.45,0.52,53.85,59.78,10.75,1.41,5.33,-0.02,-0.26,-0.02,0.01,-0.00
2025-07-23T20:52:00Z,58.59,115.42,0.00,0.00,857.87,0.52,54.64,59.79,10.75,1.49,5.33,-0.03,-0.26,-0.02,0.01,-0.00
2025-07-23T20:52:00Z,58.59,115.42,0.00,0.01,878.53,0.52,55.96,59.80,10.75,1.60,5.33,-0.04,-0.26,-0.02,0.00,-0.00
2025-07-23T20:52:00Z,58.59,115.42,0.00,0.01,899.75,0.52,57.31,59.81,10.75,1.70,5.32,-0.05,-0.26,-0.02,0.00,-0.00
2025-07-23T20:52:00Z,58.59,115.42,0.00,0.01,918.56,0.52,58.51,59.82,10.75,1.78,5.32,-0.05,-0.26,-0.02,0.00,-0.00
2025-07-23T20:52:00Z,58.59,115.42,0.00,0.02,945.96,0.52,60.25,59.83,10.75,1.89,5.31,-0.06,-0.27,-0.03,0.00,-0.00
2025-07-23T20:52:00Z,58.59,115.42,0.01,0.02,965.91,0.52,61.52,59.84,10.75,1.96,5.31,-0.05,-0.27,-0.02,0.00,-0.00
2025-07-23T20:52:00Z,58.59,115.42,0.02,0.03,993.84,0.52,63.30,59.85,10.75,2.06,5.30,-0.03,-0.27,-0.02,0.00,-0.00
2025-07-23T20:52:00Z,58.59,115.42,0.03,0.05,1021.29,0.52,65.04,59.86,10.75,2.15,5.30,-0.03,-0.27,-0.02,0.00,-0.00
2025-07-23T20:52:00Z,58.59,115.42,0.04,0.07,1038.46,0.52,66.14,59.87,10.75,2.20,5.30,-0.02,-0.27,-0.01,0.00,-0.01
2025-07-23T20:52:01Z,58.59,115.42,0.06,0.10,1064.17,0.52,67.77,59.89,10.75,2.27,5.30,-0.02,-0.28,-0.01,0.00,-0.01
2025-07-23T20:52:01Z,58.59,115.42,0.08,0.12,1079.94,0.52,68.77,59.90,10.75,2.32,5.29,-0.01,-0.28,-0.01,0.00,-0.00
2025-07-23T20:52:01Z,58.59,115.42,0.11,0.17,1103.15,0.52,70.25,59.91,10.75,2.38,5.29,-0.01,-0.28,-0.01,0.00,-0.00
2025-07-23T20:52:01Z,58.59,115.42,0.14,0.21,1124.62,0.52,71.62,59.93,10.75,2.43,5.29,-0.01,-0.28,-0.01,0.00,-0.00
2025-07-23T20:52:01Z,58.59,115.42,0.17,0.24,1137.47,0.52,72.43,59.94,10.75,2.46,5.29,-0.01,-0.28,-0.00,0.00,-0.01
2025-07-23T20:52:01Z,58.59,115.42,0.20,0.30,1154.83,0.58,73.54,59.95,10.75,2.51,5.29,-0.01,-0.28,-0.01,360.00,-0.01
2025-07-23T20:52:01Z,58.59,115.42,0.24,0.36,1172.10,0.64,74.63,59.97,10.75,2.61,5.29,-0.01,-0.28,-0.00,360.00,-0.02
2025-07-23T20:52:01Z,58.59,115.42,0.29,0.42,1191.02,0.70,75.84,59.99,10.75,2.75,5.29,-0.01,-0.28,-0.01,359.99,-0.02
2025-07-23T20:52:01Z,58.59,115.42,0.32,0.46,1205.96,0.74,76.79,60.00,10.75,2.89,5.29,-0.01,-0.28,-0.01,359.99,-0.03
2025-07-23T20:52:01Z,58.59,115.42,0.37,0.54,1231.33,0.78,77.36,60.02,10.75,3.14,5.29,-0.01,-0.28,-0.03,359.99,-0.03
2025-07-23T20:52:02Z,58.59,115.42,0.43,0.63,1264.17,0.78,77.36,60.03,10.75,3.42,5.29,-0.01,-0.29,-0.04,359.99,-0.04
2025-07-23T20:52:02Z,58.59,115.42,0.49,0.71,1295.64,0.76,77.35,60.05,10.75,3.65,5.28,-0.01,-0.29,-0.04,359.98,-0.04
2025-07-23T20:52:02Z,58.59,115.42,0.54,0.78,1320.27,0.78,77.35,60.06,10.75,3.81,5.28,-0.01,-0.29,-0.03,359.98,-0.05
2025-07-23T20:52:02Z,58.59,115.43,0.62,0.89,1357.29,0.84,77.35,60.08,10.75,4.09,5.28,-0.01,-0.30,-0.04,359.97,-0.06
2025-07-23T20:52:02Z,58.59,115.43,0.71,1.03,1400.49,0.90,77.35,60.10,10.75,4.47,5.28,-0.01,-0.30,-0.04,359.96,-0.07
2025-07-23T20:52:02Z,58.59,115.43,0.80,1.15,1441.02,0.96,77.34,60.12,10.75,4.84,5.28,-0.01,-0.30,-0.05,359.96,-0.08
2025-07-23T20:52:02Z,58.59,115.43,0.87,1.25,1473.59,1.00,77.34,60.14,10.75,5.14,5.28,-0.01,-0.31,-0.05,359.95,-0.10
2025-07-23T20:52:02Z,58.59,115.43,0.98,1.42,1523.29,1.00,77.34,60.16,10.75,5.57,5.28,-0.02,-0.31,-0.07,359.94,-0.12
2025-07-23T20:52:02Z,58.59,115.44,1.12,1.62,1578.91,1.00,77.34,60.18,10.75,6.03,5.28,-0.02,-0.32,-0.06,359.92,-0.15
2025-07-23T20:52:02Z,58.59,115.44,1.22,1.77,1619.13,1.00,77.33,60.20,10.75,6.36,5.27,-0.02,-0.32,-0.07,359.91,-0.17
2025-07-23T20:52:03Z,58.59,115.44,1.38,1.98,1671.18,1.00,77.33,60.22,10.75,6.77,5.27,-0.02,-0.33,-0.03,359.89,-0.20
2025-07-23T20:52:03Z,58.59,115.45,1.54,2.23,1722.20,1.00,77.33,60.25,10.75,7.17,5.27,-0.02,-0.33,-0.07,359.87,-0.24
2025-07-23T20:52:03Z,58.59,115.45,1.71,2.47,1767.81,1.00,77.32,60.27,10.75,7.52,5.27,-0.02,-0.34,-0.06,359.84,-0.28
2025-07-23T20:52:03Z,58.59,115.45,1.84,2.65,1800.83,1.00,77.32,60.29,10.75,7.77,5.27,-0.02,-0.34,-0.03,359.82,-0.31
2025-07-23T20:52:03Z,58.59,115.46,2.04,2.94,1846.44,1.00,77.32,60.31,10.75,8.12,5.26,-0.02,-0.34,-0.04,359.78,-0.36
2025-07-23T20:52:03Z,58.59,115.46,2.20,3.18,1879.71,1.00,77.31,60.33,10.75,8.37,5.26,-0.02,-0.35,-0.03,359.75,-0.40
2025-07-23T20:52:03Z,58.59,115.47,2.45,3.52,1923.46,1.00,77.31,60.36,10.75,8.71,5.26,-0.02,-0.35,-0.03,359.70,-0.46
2025-07-23T20:52:03Z,58.59,115.48,2.70,3.89,1963.80,1.00,77.31,60.40,10.75,9.02,5.26,-0.02,-0.36,-0.03,359.65,-0.52
2025-07-23T20:52:03Z,58.59,115.48,2.86,4.11,1985.32,1.00,77.30,60.41,10.75,9.18,5.26,-0.02,-0.36,-0.03,359.61,-0.56
2025-07-23T20:52:03Z,58.59,115.49,3.12,4.47,2017.94,1.00,77.30,60.45,10.75,9.43,5.25,-0.02,-0.36,-0.03,359.55,-0.63
2025-07-23T20:52:04Z,58.59,115.50,3.36,4.82,2045.51,1.00,77.30,60.48,10.75,9.64,5.25,-0.02,-0.36,-0.02,359.48,-0.69
2025-07-23T20:52:04Z,58.59,115.51,3.66,5.25,2074.74,1.00,77.29,60.51,10.75,9.86,5.25,-0.02,-0.36,-0.02,359.40,-0.77
2025-07-23T20:52:04Z,58.59,115.51,3.92,5.62,2097.38,1.00,77.29,60.54,10.75,10.04,5.25,-0.02,-0.37,-0.02,359.32,-0.83
2025-07-23T20:52:04Z,58.59,115.52,4.22,6.03,2119.56,1.00,77.28,60.58,10.75,10.21,5.25,-0.02,-0.37,-0.02,359.22,-0.91
2025-07-23T20:52:04Z,58.59,115.53,4.40,6.29,2132.06,1.00,77.28,60.60,10.75,10.31,5.24,-0.02,-0.37,-0.02,359.16,-0.96
2025-07-23T20:52:04Z,58.59,115.54,4.73,6.76,2151.97,1.00,77.27,60.64,10.75,10.46,5.24,-0.02,-0.37,-0.02,359.04,-1.04
2025-07-23T20:52:04Z,58.59,115.56,5.04,7.20,2168.37,1.00,77.27,60.68,10.75,10.59,5.24,-0.01,-0.37,-0.02,358.93,-1.12
2025-07-23T20:52:04Z,58.59,115.57,5.36,7.64,2182.93,1.00,77.26,60.72,10.75,10.71,5.24,-0.01,-0.38,-0.01,358.80,-1.19
2025-07-23T20:52:04Z,58.59,115.58,5.65,8.06,2194.87,1.00,77.26,60.76,10.75,10.80,5.24,-0.01,-0.38,-0.01,358.68,-1.26
2025-07-23T20:52:04Z,58.59,115.60,5.95,8.48,2205.50,1.00,77.25,60.80,10.75,10.89,5.24,-0.01,-0.38,-0.01,358.55,-1.34
2025-07-23T20:52:05Z,58.59,115.61,6.26,8.90,2214.94,1.00,77.24,60.84,10.75,10.96,5.24,-0.01,-0.38,-0.01,358.41,-1.41
2025-07-23T20:52:05Z,58.59,115.63,6.56,9.33,2223.28,1.00,77.24,60.88,10.75,11.03,5.23,-0.01,-0.38,-0.01,358.27,-1.48
2025-07-23T20:52:05Z,58.59,115.64,6.85,9.72,2230.05,1.00,77.23,60.92,10.75,11.09,5.23,-0.01,-0.38,-0.01,358.13,-1.54
2025-07-23T20:52:05Z,58.59,115.66,7.18,10.19,2237.07,1.00,77.23,60.97,10.75,11.14,5.23,-0.01,-0.38,-0.01,357.96,-1.61
2025-07-23T20:52:05Z,58.59,115.67,7.42,10.52,2241.37,1.00,77.22,61.00,10.75,11.18,5.23,-0.01,-0.38,-0.01,357.84,-1.66
2025-07-23T20:52:05Z,58.59,115.69,7.73,10.95,2246.44,1.00,77.22,61.05,10.74,11.22,5.23,-0.01,-0.39,-0.01,357.67,-1.73
2025-07-23T20:52:05Z,58.59,115.71,8.05,11.38,2250.83,1.00,77.21,61.10,10.74,11.26,5.23,-0.01,-0.39,-0.01,357.49,-1.80
2025-07-23T20:52:05Z,58.59,115.73,8.37,11.82,2254.60,1.00,77.20,61.15,10.74,11.30,5.23,-0.01,-0.39,-0.01,357.31,-1.86
2025-07-23T20:52:05Z,58.59,115.75,8.77,12.36,2258.54,1.00,77.19,61.21,10.74,11.33,5.23,-0.01,-0.39,-0.01,357.07,-1.94
2025-07-23T20:52:05Z,58.59,115.77,9.09,12.80,2261.15,1.00,77.19,61.26,10.74,11.36,5.22,-0.01,-0.39,-0.01,356.88,-2.00
2025-07-23T20:52:06Z,58.59,115.80,9.41,13.23,2263.31,1.00,77.18,61.31,10.74,11.38,5.22,-0.01,-0.39,-0.01,356.67,-2.06
2025-07-23T20:52:06Z,58.59,115.81,9.65,13.55,2264.68,1.00,77.17,61.35,10.74,11.39,5.22,-0.01,-0.39,-0.04,356.52,-2.05
2025-07-23T20:52:06Z,58.59,115.84,9.99,14.03,2266.30,1.00,77.17,61.41,10.74,11.41,5.22,-0.01,-0.40,-0.01,356.30,-1.93
2025-07-23T20:52:06Z,58.59,115.86,10.29,14.42,2267.38,1.00,77.16,61.46,10.74,11.42,5.22,-0.02,-0.40,-0.01,356.13,-1.86
2025-07-23T20:52:06Z,58.59,115.88,10.61,14.86,2268.27,1.00,77.15,61.51,10.74,11.43,5.22,-0.02,-0.40,-0.01,355.95,-1.80
2025-07-23T20:52:06Z,58.59,115.91,10.93,15.29,2268.91,1.00,77.14,61.57,10.74,11.44,5.22,-0.02,-0.40,-0.01,355.77,-1.76
2025-07-23T20:52:06Z,58.59,115.93,11.25,15.72,2269.31,1.00,77.14,61.63,10.74,11.45,5.21,-0.02,-0.40,-0.03,355.60,-1.62
2025-07-23T20:52:06Z,58.59,115.97,11.66,16.26,2269.53,1.00,77.12,61.70,10.74,11.46,5.21,-0.02,-0.40,-0.01,355.41,-1.40
2025-07-23T20:52:06Z,58.59,116.00,11.98,16.69,2269.49,1.00,77.12,61.76,10.74,11.46,5.21,-0.02,-0.40,-0.01,355.27,-1.27
2025-07-23T20:52:06Z,58.59,116.02,12.30,17.12,2269.30,1.00,77.11,61.82,10.74,11.47,5.21,-0.02,-0.41,-0.01,355.15,-1.16
2025-07-23T20:52:07Z,58.59,116.05,12.62,17.56,2268.96,1.00,77.10,61.88,10.74,11.47,5.21,-0.02,-0.41,-0.02,355.04,-1.06
2025-07-23T20:52:07Z,58.59,116.08,12.94,17.99,2268.50,1.00,77.09,61.95,10.74,11.47,5.21,-0.01,-0.41,-0.02,354.94,-0.99
2025-07-23T20:52:07Z,58.59,116.11,13.26,18.42,2267.92,1.00,77.08,62.01,10.74,11.47,5.20,-0.01,-0.41,-0.02,354.84,-0.92
2025-07-23T20:52:07Z,58.59,116.14,13.58,18.85,2267.23,1.00,77.07,62.08,10.74,11.47,5.20,-0.02,-0.41,-0.03,354.76,-0.70
2025-07-23T20:52:07Z,58.59,116.18,13.90,19.29,2266.46,1.00,77.06,62.14,10.74,11.47,5.20,-0.02,-0.42,-0.01,354.70,-0.49
2025-07-23T20:52:07Z,58.59,116.20,14.12,19.58,2265.93,1.00,77.06,62.19,10.74,11.47,5.20,-0.01,-0.42,-0.01,354.67,-0.37
2025-07-23T20:52:07Z,58.59,116.24,14.54,20.16,2265.22,1.00,77.04,62.28,10.74,11.47,5.20,-0.01,-0.42,-0.01,354.63,-0.16
2025-07-23T20:52:07Z,58.59,116.28,14.86,20.60,2264.97,1.00,77.04,62.35,10.74,11.47,5.20,-0.01,-0.42,-0.02,354.62,-0.03
2025-07-23T20:52:07Z,58.59,116.31,15.18,21.04,2264.93,1.00,77.03,62.42,10.74,11.47,5.20,-0.01,-0.42,-0.02,354.63,0.09
2025-07-23T20:52:07Z,58.59,116.35,15.49,21.47,2265.05,1.00,77.02,62.49,10.74,11.47,5.20,-0.01,-0.42,-0.00,354.64,0.08
2025-07-23T20:52:08Z,58.58,116.38,15.81,21.91,2265.30,1.00,77.01,62.56,10.74,11.48,5.19,-0.01,-0.42,-0.02,354.64,0.00
2025-07-23T20:52:08Z,58.58,116.42,16.13,22.35,2265.66,1.00,77.00,62.63,10.74,11.48,5.19,-0.00,-0.43,-0.02,354.64,-0.06
2025-07-23T20:52:08Z,58.58,116.46,16.45,22.79,2266.12,1.00,76.99,62.71,10.74,11.48,5.19,-0.00,-0.43,-0.01,354.63,-0.11
2025-07-23T20:52:08Z,58.58,116.48,16.66,23.08,2266.46,1.00,76.98,62.76,10.74,11.48,5.19,-0.00,-0.43,-0.01,354.62,-0.14
2025-07-23T20:52:08Z,58.58,116.53,17.03,23.59,2267.13,1.00,76.97,62.84,10.74,11.49,5.19,-0.00,-0.43,-0.00,354.60,-0.18
2025-07-23T20:52:08Z,58.58,116.57,17.34,24.03,2267.75,1.00,76.96,62.92,10.74,11.49,5.19,-0.00,-0.43,0.00,354.58,-0.21
2025-07-23T20:52:08Z,58.58,116.61,17.66,24.47,2268.42,1.00,76.94,63.00,10.74,11.50,5.19,-0.00,-0.43,0.00,354.56,-0.23
2025-07-23T20:52:08Z,58.58,116.65,17.98,24.90,2269.12,1.00,76.93,63.08,10.73,11.50,5.19,-0.00,-0.43,0.01,354.54,-0.25
2025-07-23T20:52:08Z,58.58,116.69,18.27,25.30,2269.78,1.00,76.92,63.15,10.73,11.51,5.19,-0.00,-0.43,0.01,354.51,-0.26
2025-07-23T20:52:08Z,58.58,116.73,18.58,25.51,2270.53,1.00,76.91,63.23,10.73,11.51,5.19,-0.12,-0.41,0.16,354.49,-0.26
2025-07-23T20:52:08Z,58.58,116.77,18.90,26.53,2271.29,1.00,76.90,63.31,10.73,11.52,5.19,0.28,-0.41,-0.02,354.46,-0.27
2025-07-23T20:52:09Z,58.58,116.82,19.22,26.29,2272.06,1.00,76.89,63.39,10.73,11.52,5.22,0.13,-0.42,-0.01,354.44,-0.10
2025-07-23T20:52:09Z,58.58,116.87,19.56,26.90,2272.90,1.00,76.88,63.48,10.73,11.52,5.22,-0.08,-0.42,-0.01,354.44,0.07
2025-07-23T20:52:09Z,58.58,116.91,19.87,27.38,2273.69,1.00,76.87,63.57,10.73,11.53,5.21,-0.08,-0.42,-0.00,354.45,0.21
2025-07-23T20:52:09Z,58.58,116.95,20.16,27.82,2274.42,1.00,76.86,63.64,10.73,11.53,5.20,-0.06,-0.42,-0.01,354.48,0.33
2025-07-23T20:52:09Z,58.58,117.00,20.50,28.32,2275.28,1.00,76.84,63.74,10.73,11.54,5.20,-0.05,-0.42,-0.02,354.52,0.57
2025-07-23T20:52:09Z,58.58,117.05,20.82,28.79,2276.08,1.00,76.83,63.82,10.73,11.54,5.19,-0.04,-0.42,-0.00,354.59,0.85
2025-07-23T20:52:09Z,58.58,117.10,21.13,29.68,2276.88,1.00,76.82,63.91,10.73,11.55,5.19,-0.14,-0.43,-0.18,354.69,1.09
2025-07-23T20:52:09Z,58.58,117.15,21.42,29.96,2277.61,1.00,76.81,63.99,10.73,11.55,5.17,-0.11,-0.45,-0.12,354.80,1.29
2025-07-23T20:52:09Z,58.58,117.20,21.76,29.98,2278.48,1.00,76.79,64.09,10.73,11.56,5.17,0.01,-0.45,0.05,354.95,1.53
2025-07-23T20:52:09Z,58.58,117.25,22.05,30.46,2279.21,1.00,76.78,64.17,10.73,11.56,5.17,0.03,-0.44,0.04,355.10,1.70
2025-07-23T20:52:10Z,58.58,117.30,22.36,30.98,2280.01,1.00,76.77,64.26,10.73,11.56,5.17,0.02,-0.44,0.02,355.28,1.87
2025-07-23T20:52:10Z,58.58,117.35,22.70,31.53,2280.87,1.00,76.76,64.36,10.73,11.57,5.17,0.02,-0.44,0.01,355.49,2.04
2025-07-23T20:52:10Z,58.58,117.41,23.02,32.03,2281.67,1.00,76.74,64.45,10.73,11.57,5.18,0.01,-0.44,0.00,355.70,2.19
2025-07-23T20:52:10Z,58.58,117.46,23.33,32.53,2282.46,1.00,76.73,64.54,10.73,11.58,5.18,0.01,-0.44,-0.00,355.92,2.32
2025-07-23T20:52:10Z,58.58,117.51,23.64,33.03,2283.25,1.00,76.72,64.64,10.73,11.58,5.18,0.01,-0.44,-0.00,356.16,2.44
2025-07-23T20:52:10Z,58.58,117.57,23.96,33.53,2284.05,1.00,76.70,64.73,10.73,11.59,5.18,0.01,-0.44,-0.01,356.41,2.44
2025-07-23T20:52:10Z,58.58,117.62,24.24,33.73,2284.77,1.00,76.69,64.82,10.73,11.59,5.18,0.01,-0.44,-0.05,356.63,2.38
2025-07-23T20:52:10Z,58.58,117.68,24.56,34.27,2285.56,1.00,76.68,64.92,10.73,11.59,5.18,-0.02,-0.45,-0.06,356.86,2.32
2025-07-23T20:52:10Z,58.58,117.74,24.89,34.80,2286.41,1.00,76.66,65.02,10.73,11.60,5.18,-0.02,-0.45,-0.06,357.11,2.09
2025-07-23T20:52:10Z,58.58,117.80,25.21,35.16,2287.20,1.00,76.65,65.12,10.73,11.60,5.18,0.00,-0.46,-0.02,357.30,1.84
2025-07-23T20:52:11Z,58.58,117.86,25.52,35.65,2287.99,1.00,76.64,65.22,10.73,11.61,5.18,0.01,-0.46,-0.02,357.47,1.49
2025-07-23T20:52:11Z,58.58,117.92,25.83,35.84,2288.77,1.00,76.62,65.32,10.73,11.61,5.18,-0.07,-0.46,-0.00,357.61,1.16
2025-07-23T20:52:11Z,58.58,117.98,26.14,36.35,2289.56,1.00,76.61,65.42,10.73,11.62,5.16,-0.17,-0.46,0.02,357.71,0.87
2025-07-23T20:52:11Z,58.58,118.03,26.43,35.93,2290.28,1.00,76.60,65.51,10.73,11.62,5.16,-0.01,-0.46,0.04,357.78,0.64
2025-07-23T20:52:11Z,58.58,118.10,26.77,36.59,2291.13,1.00,76.58,65.62,10.73,11.62,5.16,0.04,-0.45,0.02,357.84,0.40
2025-07-23T20:52:11Z,58.58,118.16,27.08,37.04,2291.91,1.00,76.57,65.72,10.73,11.63,5.16,0.04,-0.45,0.03,357.87,0.19
2025-07-23T20:52:11Z,58.58,118.23,27.42,37.63,2292.76,1.00,76.55,65.83,10.73,11.63,5.16,0.01,-0.44,0.07,357.88,-0.00
2025-07-23T20:52:11Z,58.58,118.29,27.73,38.07,2293.55,1.00,76.54,65.94,10.72,11.64,5.17,0.01,-0.44,0.08,357.87,-0.16
2025-07-23T20:52:11Z,58.58,118.35,28.04,38.50,2294.33,1.00,76.52,66.04,10.72,11.64,5.17,0.00,-0.43,0.08,357.85,-0.31
2025-07-23T20:52:12Z,58.58,118.42,28.35,38.94,2295.11,1.00,76.51,66.15,10.72,11.64,5.17,0.00,-0.42,0.08,357.81,-0.44
2025-07-23T20:52:12Z,58.58,118.49,28.69,39.39,2295.96,1.00,76.49,66.26,10.72,11.65,5.17,-0.00,-0.41,0.07,357.76,-0.56
2025-07-23T20:52:12Z,58.58,118.56,29.00,39.81,2296.74,1.00,76.48,66.37,10.72,11.65,5.17,-0.00,-0.41,0.07,357.69,-0.66
2025-07-23T20:52:12Z,58.58,118.61,29.23,40.13,2297.33,1.00,76.47,66.45,10.72,11.66,5.17,-0.00,-0.40,0.07,357.64,-0.73
2025-07-23T20:52:12Z,58.58,118.67,29.55,40.54,2298.11,1.00,76.45,66.56,10.72,11.66,5.17,-0.00,-0.39,0.06,357.57,-0.82
2025-07-23T20:52:12Z,58.58,118.75,29.88,40.98,2298.96,1.00,76.43,66.67,10.72,11.67,5.16,-0.01,-0.39,0.06,357.47,-0.90
2025-07-23T20:52:12Z,58.58,118.82,30.22,41.42,2299.81,1.00,76.42,66.79,10.72,11.67,5.16,-0.01,-0.38,0.05,357.37,-0.97
2025-07-23T20:52:12Z,58.58,118.89,30.53,41.83,2300.59,1.00,76.40,66.90,10.72,11.67,5.16,-0.01,-0.38,0.07,357.27,-0.92
2025-07-23T20:52:12Z,58.58,118.96,30.84,42.23,2301.37,1.00,76.39,67.01,10.72,11.68,5.16,-0.01,-0.37,0.07,357.19,-0.81
2025-07-23T20:52:12Z,58.58,119.03,31.15,42.36,2302.15,1.00,76.37,67.13,10.72,11.68,5.16,-0.17,-0.36,0.07,357.11,-0.71
2025-07-23T20:52:13Z,58.58,119.10,31.45,41.88,2302.93,1.00,76.36,67.24,10.72,11.69,5.14,-0.06,-0.35,0.05,357.04,-0.62
2025-07-23T20:52:13Z,58.58,119.17,31.76,42.27,2303.71,1.00,76.34,67.35,10.72,11.69,5.14,-0.02,-0.35,0.04,356.99,-0.53
2025-07-23T20:52:13Z,58.57,119.24,32.07,41.62,2304.49,1.00,76.32,67.46,10.72,11.69,5.13,-0.17,-0.34,0.22,356.94,-0.45
2025-07-23T20:52:13Z,58.57,119.30,32.36,42.02,2305.21,1.00,76.31,67.57,10.72,11.70,5.11,-0.16,-0.32,0.23,356.90,-0.38
2025-07-23T20:52:13Z,58.57,119.38,32.69,41.78,2306.05,1.00,76.29,67.69,10.72,11.70,5.10,-0.02,-0.31,0.01,356.86,-0.32
2025-07-23T20:52:13Z,58.57,119.45,33.00,42.17,2306.84,1.00,76.28,67.81,10.72,11.71,5.10,-0.01,-0.31,0.01,356.83,-0.25
2025-07-23T20:52:13Z,58.57,119.52,33.31,42.56,2307.62,1.00,76.26,67.92,10.72,11.71,5.10,-0.01,-0.31,0.00,356.81,-0.19
2025-07-23T20:52:13Z,58.57,119.59,33.62,42.95,2308.40,1.00,76.24,68.04,10.72,11.72,5.10,-0.01,-0.31,-0.00,356.79,-0.14
2025-07-23T20:52:13Z,58.57,119.66,33.93,43.34,2309.18,1.00,76.23,68.16,10.72,11.72,5.10,-0.01,-0.31,-0.01,356.78,-0.09
2025-07-23T20:52:13Z,58.57,119.74,34.26,43.94,2310.03,1.00,76.21,68.28,10.72,11.72,5.10,-0.03,-0.31,-0.07,356.77,-0.04
2025-07-23T20:52:14Z,58.57,119.82,34.57,44.36,2310.81,1.00,76.19,68.40,10.72,11.73,5.10,-0.06,-0.32,-0.09,356.77,-0.00
2025-07-23T20:52:14Z,58.57,119.89,34.88,44.89,2311.60,1.00,76.18,68.52,10.72,11.73,5.09,0.01,-0.33,-0.09,356.77,0.04
2025-07-23T20:52:14Z,58.57,119.96,35.18,45.30,2312.38,1.00,76.16,68.64,10.72,11.74,5.09,0.04,-0.34,-0.05,356.78,0.12
2025-07-23T20:52:14Z,58.57,120.04,35.49,45.70,2313.16,1.00,76.14,68.76,10.72,11.74,5.10,0.04,-0.34,-0.04,356.80,0.31
2025-07-23T20:52:14Z,58.57,120.12,35.80,46.10,2313.94,1.00,76.13,68.88,10.72,11.75,5.10,0.04,-0.35,-0.05,356.84,0.49
2025-07-23T20:52:14Z,58.57,120.17,36.00,46.61,2314.47,1.00,76.12,68.96,10.72,11.75,5.10,0.01,-0.35,0.02,356.87,0.60
2025-07-23T20:52:14Z,58.57,120.27,36.41,47.15,2315.51,1.00,76.09,69.12,10.72,11.75,5.10,-0.01,-0.35,0.01,356.97,0.80
2025-07-23T20:52:14Z,58.57,120.35,36.71,47.55,2316.29,1.00,76.08,69.25,10.72,11.76,5.10,-0.01,-0.35,-0.05,357.05,0.78
2025-07-23T20:52:14Z,58.57,120.40,36.92,47.82,2316.81,1.00,76.07,69.33,10.72,11.76,5.10,-0.01,-0.35,-0.05,357.10,0.76
2025-07-23T20:52:14Z,58.57,120.49,37.25,48.27,2317.66,1.00,76.05,69.46,10.71,11.77,5.10,-0.00,-0.36,-0.05,357.18,0.73
2025-07-23T20:52:14Z,58.57,120.57,37.55,48.68,2318.44,1.00,76.03,69.59,10.71,11.77,5.10,-0.00,-0.36,-0.04,357.25,0.71
2025-07-23T20:52:15Z,58.57,120.67,37.91,49.17,2319.35,1.00,76.01,69.73,10.71,11.77,5.10,-0.00,-0.37,-0.03,357.33,0.68
2025-07-23T20:52:15Z,58.57,120.75,38.21,49.59,2320.14,1.00,75.99,69.86,10.71,11.78,5.10,-0.00,-0.37,-0.02,357.40,0.66
2025-07-23T20:52:15Z,58.57,120.84,38.54,50.04,2320.98,1.00,75.97,69.99,10.71,11.78,5.10,-0.00,-0.37,-0.01,357.47,0.64
2025-07-23T20:52:15Z,58.57,120.92,38.82,50.42,2321.70,1.00,75.96,70.11,10.71,11.79,5.10,-0.00,-0.37,-0.01,357.53,0.62
2025-07-23T20:52:15Z,58.57,121.01,39.14,50.88,2322.55,1.00,75.94,70.25,10.71,11.79,5.10,-0.00,-0.37,0.00,357.60,0.60
2025-07-23T20:52:15Z,58.57,121.09,39.44,51.29,2323.33,1.00,75.92,70.37,10.71,11.80,5.10,-0.00,-0.37,0.01,357.66,0.59
2025-07-23T20:52:15Z,58.57,121.18,39.75,51.71,2324.11,1.00,75.90,70.50,10.71,11.80,5.10,-0.00,-0.37,0.01,357.71,0.57
2025-07-23T20:52:15Z,58.57,121.24,39.97,52.02,2324.69,1.00,75.89,70.60,10.71,11.80,5.10,-0.00,-0.37,0.01,357.76,0.56
2025-07-23T20:52:15Z,58.57,121.33,40.27,52.44,2325.47,1.00,75.87,70.72,10.71,11.81,5.10,-0.00,-0.37,0.02,357.81,0.55
2025-07-23T20:52:15Z,58.57,121.42,40.57,52.85,2326.25,1.00,75.85,70.85,10.71,11.81,5.10,-0.00,-0.37,0.02,357.87,0.54
2025-07-23T20:52:16Z,58.57,121.51,40.87,53.27,2327.03,1.00,75.84,70.98,10.71,11.82,5.10,-0.00,-0.36,0.02,357.92,0.53
2025-07-23T20:52:16Z,58.57,121.60,41.17,53.68,2327.81,1.00,75.82,71.11,10.71,11.82,5.10,-0.00,-0.36,0.02,357.97,0.52
2025-07-23T20:52:16Z,58.57,121.69,41.47,54.09,2328.59,1.00,75.80,71.24,10.71,11.83,5.10,-0.00,-0.36,0.02,358.02,0.51
2025-07-23T20:52:16Z,58.57,121.78,41.77,54.50,2329.37,1.00,75.78,71.37,10.71,11.83,5.10,-0.00,-0.36,0.03,358.07,0.50
2025-07-23T20:52:16Z,58.57,121.88,42.09,54.95,2330.21,1.00,75.76,71.52,10.71,11.83,5.10,-0.00,-0.35,0.03,358.13,0.49
2025-07-23T20:52:16Z,58.57,121.97,42.39,55.36,2330.99,1.00,75.74,71.65,10.71,11.84,5.10,-0.00,-0.35,0.03,358.18,0.48
2025-07-23T20:52:16Z,58.56,122.05,42.66,55.74,2331.70,1.00,75.73,71.77,10.71,11.84,5.09,-0.01,-0.35,0.03,358.22,0.48
2025-07-23T20:52:16Z,58.56,122.15,42.99,56.18,2332.54,1.00,75.71,71.91,10.71,11.85,5.09,-0.01,-0.35,0.03,358.27,0.47
2025-07-23T20:52:16Z,58.56,122.25,43.28,56.59,2333.33,1.00,75.69,72.05,10.71,11.85,5.09,-0.01,-0.34,0.03,358.32,0.46
2025-07-23T20:52:16Z,58.56,122.34,43.58,57.00,2334.27,1.00,75.67,72.18,10.71,11.86,5.09,-0.01,-0.34,0.03,358.36,0.45
2025-07-23T20:52:17Z,58.56,122.43,43.85,57.37,2335.31,1.00,75.65,72.30,10.71,11.86,5.09,-0.01,-0.34,0.03,358.40,0.45
2025-07-23T20:52:17Z,58.56,122.54,44.20,57.85,2336.82,1.00,75.63,72.46,10.71,11.87,5.09,-0.01,-0.34,0.03,358.46,0.44
2025-07-23T20:52:17Z,58.56,122.64,44.49,58.25,2338.26,1.00,75.61,72.59,10.71,11.88,5.09,-0.01,-0.33,0.03,358.50,0.43
2025-07-23T20:52:17Z,58.56,122.73,44.76,58.62,2339.68,1.00,75.59,72.72,10.71,11.89,5.09,-0.01,-0.33,0.03,358.54,0.42
2025-07-23T20:52:17Z,58.56,122.82,45.06,59.03,2341.30,1.00,75.58,72.85,10.71,11.89,5.09,-0.01,-0.33,0.03,358.58,0.42
2025-07-23T20:52:17Z,58.56,122.93,45.38,59.47,2343.15,1.00,75.56,73.00,10.71,11.90,5.09,-0.01,-0.32,0.03,358.63,0.41
2025-07-23T20:52:17Z,58.56,123.04,45.69,59.91,2345.07,1.00,75.54,73.15,10.71,11.91,5.09,-0.01,-0.32,0.03,358.67,0.40
2025-07-23T20:52:17Z,58.56,123.14,45.99,60.31,2346.89,1.00,75.52,73.28,10.71,11.92,5.09,-0.01,-0.32,0.03,358.71,0.39
2025-07-23T20:52:17Z,58.56,123.24,46.28,60.71,2348.74,1.00,75.50,73.42,10.70,11.93,5.09,-0.01,-0.32,0.03,358.75,0.38
2025-07-23T20:52:17Z,58.56,123.32,46.50,61.02,2350.16,1.00,75.48,73.52,10.70,11.94,5.09,-0.01,-0.31,0.03,358.78,0.38
2025-07-23T20:52:18Z,58.56,123.44,46.87,61.52,2352.56,1.00,75.46,73.70,10.70,11.95,5.09,-0.01,-0.31,0.03,358.82,0.37
2025-07-23T20:52:18Z,58.56,123.55,47.16,61.92,2354.50,1.00,75.44,73.84,10.70,11.96,5.09,-0.01,-0.31,0.03,358.86,0.36
2025-07-23T20:52:18Z,58.56,123.64,47.43,62.29,2356.29,1.00,75.42,73.96,10.70,11.97,5.09,-0.01,-0.30,0.03,358.89,0.35
2025-07-23T20:52:18Z,58.56,123.75,47.75,59.86,2358.43,1.00,75.40,74.11,10.70,11.98,5.06,-0.20,-0.31,0.00,358.93,0.31
2025-07-23T20:52:18Z,58.56,123.85,48.05,59.99,2360.42,1.00,75.38,74.25,10.70,11.99,5.05,-0.02,-0.30,0.03,358.96,0.31
2025-07-23T20:52:18Z,58.56,123.95,48.34,58.84,2362.43,1.00,75.36,74.39,10.70,12.00,5.03,-0.13,-0.30,0.05,358.99,0.29
2025-07-23T20:52:18Z,58.56,124.04,48.61,59.15,2364.27,1.00,75.34,74.52,10.70,12.01,5.03,-0.02,-0.30,0.03,359.01,0.29
2025-07-23T20:52:18Z,58.56,124.12,48.86,59.48,2365.95,1.00,75.33,74.64,10.70,12.02,5.03,-0.01,-0.29,0.03,359.04,0.28
2025-07-23T20:52:18Z,58.56,124.22,49.15,59.87,2367.98,1.00,75.31,74.78,10.70,12.03,5.03,-0.01,-0.29,0.03,359.06,0.27
2025-07-23T20:52:18Z,58.56,124.32,49.44,60.26,2370.01,1.00,75.29,74.92,10.70,12.04,5.03,-0.01,-0.29,0.03,359.09,0.26
2025-07-23T20:52:19Z,58.56,124.42,49.74,60.64,2372.05,1.00,75.27,75.06,10.70,12.05,5.03,-0.01,-0.29,0.03,359.12,0.25
2025-07-23T20:52:19Z,58.56,124.55,50.11,61.11,2374.60,1.00,75.24,75.24,10.70,12.07,5.03,-0.01,-0.28,0.03,359.15,0.24
2025-07-23T20:52:19Z,58.56,124.65,50.40,61.49,2376.64,1.00,75.23,75.38,10.70,12.08,5.02,-0.01,-0.28,0.03,359.17,0.23
2025-07-23T20:52:19Z,58.56,124.76,50.69,61.86,2378.69,1.00,75.21,75.52,10.70,12.09,5.02,-0.01,-0.28,0.03,359.19,0.22
2025-07-23T20:52:19Z,58.55,124.86,50.99,62.24,2380.75,1.00,75.19,75.67,10.70,12.10,5.02,-0.01,-0.27,0.03,359.21,0.21
2025-07-23T20:52:19Z,58.55,124.96,51.28,62.61,2382.80,1.00,75.17,75.81,10.70,12.11,5.02,-0.01,-0.27,0.03,359.23,0.20
2025-07-23T20:52:19Z,58.55,125.07,51.57,62.99,2384.85,1.00,75.15,75.95,10.70,12.12,5.02,-0.01,-0.27,0.16,359.25,0.22
2025-07-23T20:52:19Z,58.55,125.16,51.84,63.34,2386.74,1.00,75.13,76.08,10.70,12.13,5.02,-0.01,-0.25,0.17,359.28,0.32
2025-07-23T20:52:19Z,58.55,125.28,52.16,63.74,2388.97,1.00,75.11,76.24,10.70,12.14,5.02,-0.01,-0.23,0.14,359.32,0.42
2025-07-23T20:52:20Z,58.55,125.39,52.45,64.11,2391.03,1.00,75.09,76.38,10.70,12.15,5.02,-0.01,-0.22,0.12,359.36,0.50
2025-07-23T20:52:20Z,58.55,125.48,52.72,64.57,2392.92,1.00,75.07,76.52,10.70,12.16,5.02,0.04,-0.21,0.10,359.41,0.57
2025-07-23T20:52:20Z,58.55,125.60,53.04,65.68,2395.15,1.00,75.05,76.67,10.70,12.17,5.02,0.03,-0.21,0.07,359.48,0.64
2025-07-23T20:52:20Z,58.55,125.71,53.33,66.03,2397.21,1.00,75.03,76.82,10.70,12.18,5.02,-0.00,-0.20,0.08,359.55,0.69
2025-07-23T20:52:20Z,58.55,125.82,53.62,66.41,2399.27,1.00,75.01,76.96,10.70,12.19,5.02,-0.01,-0.19,0.07,359.62,0.73
2025-07-23T20:52:20Z,58.55,125.93,53.91,66.78,2401.33,1.00,74.98,77.11,10.70,12.20,5.02,-0.01,-0.19,0.06,359.69,0.76
2025-07-23T20:52:20Z,58.55,126.03,54.18,67.13,2403.22,1.00,74.97,77.24,10.70,12.21,5.02,-0.01,-0.18,0.06,359.76,0.78
2025-07-23T20:52:20Z,58.55,126.15,54.47,67.51,2405.28,1.00,74.95,77.39,10.70,12.23,5.02,-0.01,-0.18,0.06,359.84,0.80
2025-07-23T20:52:20Z,58.55,126.27,54.78,67.92,2407.51,1.00,74.92,77.55,10.70,12.24,5.02,-0.01,-0.17,0.05,359.93,0.80
2025-07-23T20:52:20Z,58.55,126.35,55.00,66.31,2409.05,1.00,74.91,77.66,10.69,12.24,5.00,-0.27,-0.16,0.06,359.99,0.76
2025-07-23T20:52:21Z,58.55,126.47,55.31,65.83,2411.28,1.00,74.89,77.82,10.69,12.26,4.99,-0.02,-0.16,0.05,0.07,0.77
2025-07-23T20:52:21Z,58.55,126.59,55.62,66.25,2413.51,1.00,74.86,77.98,10.69,12.27,4.99,-0.00,-0.15,0.05,0.15,0.75
2025-07-23T20:52:21Z,58.55,126.71,55.94,66.66,2415.74,1.00,74.84,78.14,10.69,12.28,4.99,-0.00,-0.15,0.05,0.23,0.73
2025-07-23T20:52:21Z,58.55,126.80,56.18,66.56,2417.46,1.00,74.83,78.26,10.69,12.29,4.99,-0.17,-0.15,0.07,0.29,0.69
